vessel_id,vessel_name,vessel_flag,vessel_type,ssvid,event_start,event_end,duration_hrs,avg_speed_knots,total_distance_km,bbox_area_km2,net_displacement_ratio,lat,lon,dist_shore_km,dist_port_km,in_mpa,in_mpa_no_take,in_mpa_partial,on_high_seas,eez,rfmo,auth_status,potential_risk_flag,mpa_tier_weight,auth_multiplier,high_seas_mult,risk_flag_mult,risk_score
35d70898e-ea36-6cd2-9027-5d6dad6b47d2,LU QING YUAN YU 227,CHN,fishing,412549073,2022-12-31 08:28:05+00:00,2023-01-01 10:38:16+00:00,26.17,3.802,184.87,845.03,0.2226,-45.5907,-60.527,386.0,404.48,0,0,0,1,[],"['IWC', 'ICCAT', 'CCSBT', 'ACAP']",not_matching_relevant_public_authorization,1,1.0,2.0,1.3,1.5,3.9
e3c22afca-a1d7-927b-d4a3-df4b8c9c6537,KHA YANG NO5,MYS,fishing,533333005,2022-12-31 09:58:51+00:00,2023-01-01 01:35:01+00:00,15.6,4.494,113.81,540.6,0.4482,-24.3895,51.3834,393.0,441.61,0,0,0,1,[],"['IOTC', 'SIOFA', 'CCSBT', 'IWC', 'ACAP']",not_matching_relevant_public_authorization,1,1.0,2.0,1.3,1.5,3.9
38b53e7ae-ecd1-d93f-620f-b279ce1dce12,KHA YANG 9,MYS,fishing,533333009,2022-12-31 09:30:32+00:00,2023-01-01 01:44:51+00:00,16.24,5.077,138.95,2830.39,0.56,-24.8322,51.4086,396.0,429.17,0,0,0,1,[],"['SIOFA', 'IWC', 'ACAP', 'IOTC', 'CCSBT']",not_matching_relevant_public_authorization,1,1.0,2.0,1.3,1.5,3.9
af50938df-f3f1-6511-c329-668197fbdb62,IMULA 1827 MTR,LKA,fishing,417182741,2022-12-31 08:28:46+00:00,2023-01-01 00:09:45+00:00,15.68,3.803,99.56,2160.82,0.8269,-6.2087,67.0253,500.0,636.45,0,0,0,1,[],"['IWC', 'SIOFA', 'ACAP', 'IOTC']",not_matching_relevant_public_authorization,1,1.0,2.0,1.3,1.5,3.9
e9537a761-14cf-e78d-4bc6-accbf1d79dca,SUR ESTE 707,KOR,fishing,441051000,2022-12-31 09:02:15+00:00,2023-01-01 12:13:04+00:00,27.18,3.18,169.01,1788.72,0.5173,-45.6552,-60.6604,394.0,409.01,0,0,0,1,[],"['ICCAT', 'IWC', 'CCSBT', 'ACAP']",not_matching_relevant_public_authorization,1,1.0,2.0,1.3,1.5,3.9
02ac7d216-6d61-5638-2db2-dcf32773eb7b,KM JW 15,IDN,fishing,525201603,2022-12-31 07:58:07+00:00,2023-01-03 02:33:27+00:00,66.59,3.81,448.91,5206.77,0.2364,-34.6943,100.3867,1364.0,1384.01,0,0,0,1,[],"['ACAP', 'IOTC', 'SIOFA', 'CCSBT', 'IWC', 'CCSBT-Primary-Area']",not_matching_relevant_public_authorization,1,1.0,2.0,1.3,1.5,3.9
4e0d1ebb3-3491-a98f-f390-40d16b5a5815,LU QING YUAN YU 211,CHN,fishing,412329693,2022-12-31 07:32:23+00:00,2023-01-01 07:44:06+00:00,24.2,3.609,165.53,1568.45,0.3762,-45.4451,-60.4524,417.0,436.36,0,0,0,1,[],"['IWC', 'ICCAT', 'ACAP', 'CCSBT']",not_matching_relevant_public_authorization,1,1.0,2.0,1.3,1.5,3.9
2967c0993-3957-ec24-d899-9ba473a53de1,,TWN,fishing,416000054,2022-12-31 06:54:25+00:00,2023-01-01 07:12:39+00:00,24.3,4.574,162.73,4474.08,0.6167,34.1938,-164.5086,1114.0,1418.17,0,0,0,1,[],"['NPFC', 'WCPFC', 'PICES', 'IWC', 'NPAFC', 'ACAP']",not_matching_relevant_public_authorization,1,1.0,2.0,1.3,1.5,3.9
ef80b2015-5cac-5153-5c26-ca4e52234fc7,JW 23,IDN,fishing,525101920,2022-12-31 00:37:57+00:00,2023-01-02 06:07:28+00:00,53.49,2.668,213.09,1096.42,0.2219,-31.6347,100.7314,1314.0,1314.12,0,0,0,1,[],"['IWC', 'CCSBT', 'ACAP', 'CCSBT-Primary-Area', 'IOTC', 'SIOFA']",not_matching_relevant_public_authorization,1,1.0,2.0,1.3,1.5,3.9
f5e0f6e39-9f28-836f-15af-3451f7b60eba,LURONGYUANYU979,CHN,fishing,412329437,2022-12-31 09:08:34+00:00,2023-01-01 00:25:47+00:00,15.29,3.971,107.2,267.24,0.3608,-45.5345,-60.5954,390.0,408.43,0,0,0,1,[],"['ACAP', 'CCSBT', 'ICCAT', 'IWC']",not_matching_relevant_public_authorization,1,1.0,2.0,1.3,1.5,3.9
ed142b0fe-e9b0-68b5-a8e2-b858e5dfe358,LU QING YUAN YU 209,CHN,fishing,412329691,2022-12-30 23:16:15+00:00,2023-01-01 07:21:36+00:00,32.09,3.537,206.07,1587.2,0.309,-45.5002,-60.4549,388.0,406.45,0,0,0,1,[],"['ICCAT', 'IWC', 'ACAP', 'CCSBT']",not_matching_relevant_public_authorization,1,1.0,2.0,1.3,1.5,3.9
7e07c94c4-4ab7-86d2-1075-4d980d0e2a6b,11V8,,fishing,110060322,2022-12-30 22:25:54+00:00,2023-01-01 17:15:49+00:00,42.83,1.904,94.26,743.4,0.4729,-3.7774,-131.3167,1030.0,1055.42,0,0,0,1,[],"['IATTC', 'ACAP', 'SPRFMO', 'IWC']",not_matching_relevant_public_authorization,1,1.0,2.0,1.3,1.5,3.9
c69320602-2c89-eb82-150f-bb70fa6ced91,LU QING YUAN YU 205,CHN,fishing,412329686,2022-12-30 22:41:31+00:00,2023-01-01 21:09:07+00:00,46.46,3.585,308.95,2017.2,0.2305,-45.6898,-60.5755,394.0,409.8,0,0,0,1,[],"['IWC', 'ACAP', 'CCSBT', 'ICCAT']",not_matching_relevant_public_authorization,1,1.0,2.0,1.3,1.5,3.9
030afcd8e-ef57-d4cd-aa77-445f14ba8e37,MANUEL ANGEL NORES,ESP,fishing,224978000,2022-12-30 21:35:01+00:00,2023-01-01 13:22:01+00:00,39.78,3.399,253.53,1479.88,0.2737,-45.5397,-60.5995,387.0,403.43,0,0,0,1,[],"['IWC', 'ICCAT', 'CCSBT', 'ACAP']",not_matching_relevant_public_authorization,1,1.0,2.0,1.3,1.5,3.9
62f4ac25b-b9d4-e093-14ad-f464e2dd7451,LU QING YUAN YU 210,CHN,fishing,412329692,2022-12-30 20:12:48+00:00,2023-01-02 09:52:08+00:00,61.66,3.14,340.05,2052.09,0.211,-45.7019,-60.5953,424.0,440.19,0,0,0,1,[],"['ACAP', 'ICCAT', 'CCSBT', 'IWC']",not_matching_relevant_public_authorization,1,1.0,2.0,1.3,1.5,3.9
0b361db06-676a-0962-c789-e1ad61cd06ce,LU QING YUAN YU 202,CHN,fishing,412329685,2022-12-30 19:42:43+00:00,2023-01-01 08:32:22+00:00,36.83,3.45,241.86,1176.86,0.2344,-45.5857,-60.5619,389.0,406.1,0,0,0,1,[],"['ICCAT', 'CCSBT', 'ACAP', 'IWC']",not_matching_relevant_public_authorization,1,1.0,2.0,1.3,1.5,3.9
5a1e0ce3c-c4d1-d73f-0f10-a79a08fe88c8,TOMIMARU NO.58,JPN,fishing,431800220,2022-12-29 23:39:08+00:00,2023-01-01 01:31:17+00:00,49.87,2.328,143.95,170.35,0.1467,-38.5316,47.6916,844.0,1510.23,0,0,0,1,[],"['IOTC', 'ACAP', 'IWC', 'SIOFA', 'CCSBT', 'CCSBT-Primary-Area']",not_matching_relevant_public_authorization,1,1.0,2.0,1.3,1.5,3.9
7039b3183-31f2-cbdb-2672-24d86cdfb321,LU QING YUAN YU 226,CHN,fishing,412549072,2022-12-30 23:17:36+00:00,2023-01-01 14:09:00+00:00,38.86,3.544,255.3,1288.82,0.2118,-45.6322,-60.5081,391.0,408.37,0,0,0,1,[],"['ACAP', 'IWC', 'CCSBT', 'ICCAT']",not_matching_relevant_public_authorization,1,1.0,2.0,1.3,1.5,3.9
68c9b02bc-ced5-7009-1dfe-e64cf81b84fc,11V9,,fishing,110060318,2022-12-30 16:40:47+00:00,2023-01-01 19:49:34+00:00,51.15,2.071,118.41,931.58,0.4129,-3.7813,-131.2354,1027.0,1052.62,0,0,0,1,[],"['SPRFMO', 'IATTC', 'IWC', 'ACAP']",not_matching_relevant_public_authorization,1,1.0,2.0,1.3,1.5,3.9
ce17bc731-198c-57c2-49ce-93b344acd557,FONG CHUN NO.136,TWN,fishing,416081500,2022-12-30 13:18:07+00:00,2023-01-01 08:25:10+00:00,43.12,5.292,418.37,5518.27,0.2641,30.803,-139.4696,1740.0,1755.14,0,0,0,1,[],"['PICES', 'ACAP', 'IWC', 'IATTC', 'NPFC']",not_matching_relevant_public_authorization,1,1.0,2.0,1.3,1.5,3.9
87d0fa429-90aa-062b-a6af-75bce189fa23,LK ENDURANCE,GBR,fishing,232148000,2022-12-31 08:19:19+00:00,2023-01-01 10:20:01+00:00,26.01,2.822,136.56,668.34,0.3015,60.4728,-0.7952,2.0,6.69,1,0,0,0,['5696'],"['ACAP', 'NAMMCO', 'IWC', 'ICES', 'ICCAT', 'NASCO', 'NEAFC']",not_matching_relevant_public_authorization,0,1.5,2.0,1.0,1.0,3.0
33540b941-17d9-b465-6994-1b0ca5b0d2cd,5 GWANG YANG HO,KOR,fishing,440304990,2022-12-30 22:48:36+00:00,2023-01-01 12:41:33+00:00,37.88,1.994,83.02,12.37,0.06,34.4363,127.9073,8.0,8.06,1,0,0,0,['8327'],"['WCPFC', 'ACAP', 'IWC', 'PICES']",not_matching_relevant_public_authorization,0,1.5,2.0,1.0,1.0,3.0
d5eefafaa-a374-9200-c146-cad5fdb06a56,TOVE KAJGAARD,DNK,fishing,219013485,2022-12-31 07:19:30+00:00,2023-01-01 15:26:53+00:00,32.12,2.506,149.47,1045.08,0.3467,58.092,10.339,22.0,25.04,1,0,0,0,['5674'],"['ICES', 'NASCO', 'ACAP', 'NEAFC', 'IWC', 'NAMMCO', 'ICCAT']",not_matching_relevant_public_authorization,0,1.5,2.0,1.0,1.0,3.0
79ef0a09f-f5f3-0a4c-bdad-475e4dd94312,REBECCA FR143,GBR,fishing,235117076,2022-12-31 00:49:40+00:00,2023-01-04 14:42:21+00:00,109.88,3.02,564.17,11695.72,0.2747,59.3739,-0.189,93.0,53.93,1,0,0,0,['5696'],"['NEAFC', 'ICCAT', 'NASCO', 'IWC', 'ACAP', 'NAMMCO', 'ICES']",not_matching_relevant_public_authorization,0,1.5,2.0,1.0,1.0,3.0
91db5d96e-ee15-b374-759b-336899be8398,ONWA28423,,fishing,9128423,2022-12-31 09:24:06+00:00,2023-01-03 13:45:03+00:00,76.35,1.766,229.01,1853.16,0.2668,-24.3815,-46.9461,3.0,91.93,1,0,0,0,['8464'],"['ICCAT', 'ACAP', 'IWC']",not_matching_relevant_public_authorization,0,1.5,2.0,1.0,1.0,3.0
c7bf8cd21-1686-8843-11a6-d94f4ab71280,F/V GLORIEUSE IMMACU,FRA,fishing,228195800,2022-12-31 09:06:29+00:00,2023-01-01 20:13:37+00:00,35.12,2.796,79.4,126.94,0.2091,47.8554,-7.9202,222.0,224.61,1,0,0,0,['5677'],"['ACAP', 'NASCO', 'NAMMCO', 'NEAFC', 'ICCAT', 'IWC', 'ICES']",not_matching_relevant_public_authorization,0,1.5,2.0,1.0,1.0,3.0
08c38e3fd-d56e-5209-3a02-a79acdb53dce,ANTHEMIS,FRA,fishing,228383700,2022-12-30 18:43:00+00:00,2023-01-02 21:21:17+00:00,74.64,2.997,401.37,914.85,0.1274,49.5681,-4.6118,57.0,58.16,1,0,0,0,['5696'],"['NAMMCO', 'NASCO', 'ICES', 'IWC', 'ACAP', 'NEAFC', 'ICCAT']",not_matching_relevant_public_authorization,0,1.5,2.0,1.0,1.0,3.0
343096708-8270-64a1-d8b1-048ff17a31c8,EDER SANDS,GBR,fishing,232006590,2022-12-30 22:20:11+00:00,2023-01-01 12:13:04+00:00,37.88,3.052,200.39,2359.99,0.381,52.1214,-14.7483,293.0,315.07,1,0,0,0,['5681'],"['ACAP', 'NEAFC', 'IWC', 'ICCAT', 'NAMMCO', 'ICES', 'NASCO']",not_matching_relevant_public_authorization,0,1.5,2.0,1.0,1.0,3.0
744c9bd19-9ef0-d34b-7fc0-a2149f137f7d,BOETIE BERT,ZAF,fishing,601387000,2022-12-29 06:35:39+00:00,2023-01-01 00:11:12+00:00,65.59,3.32,328.24,3851.4,0.2728,-30.9089,15.6194,213.0,303.6,1,0,0,0,['8396'],"['CCSBT', 'ICCAT', 'ACAP', 'CCSBT-Primary-Area', 'IWC']",not_matching_relevant_public_authorization,0,1.5,2.0,1.0,1.0,3.0
a838998ac-c381-7a3f-74d8-63020e66358f,OCEAN REAPER,GBR,fishing,235004730,2022-12-29 21:32:55+00:00,2023-01-01 02:17:09+00:00,52.74,2.918,238.9,142.47,0.0711,60.3424,-2.6709,41.0,45.48,1,0,0,0,['5696'],"['NEAFC', 'NAMMCO', 'ACAP', 'ICES', 'ICCAT', 'IWC', 'NASCO']",not_matching_relevant_public_authorization,0,1.5,2.0,1.0,1.0,3.0
699dea041-1211-3236-bf1b-69985cbc9793,CALEDONIA III BCK35,GBR,fishing,232014358,2022-12-28 04:42:22+00:00,2023-01-01 08:42:16+00:00,100.0,2.896,441.3,686.42,0.0844,60.0361,-3.3087,59.0,50.49,1,0,0,0,['5696'],"['ICES', 'NAMMCO', 'ICCAT', 'NASCO', 'NEAFC', 'ACAP', 'IWC']",not_matching_relevant_public_authorization,0,1.5,2.0,1.0,1.0,3.0
8c187aae6-6168-1bce-72a5-d1a5e6340a44,OSTSEEBAD PREROW,DEU,fishing,211186920,2022-12-28 13:05:09+00:00,2023-01-03 14:06:42+00:00,145.03,0.953,89.31,15.46,0.0624,54.4421,12.5934,0.0,3.34,1,0,0,0,['5669'],"['ICCAT', 'EIFAAC']",not_matching_relevant_public_authorization,0,1.5,2.0,1.0,1.0,3.0
d2999625c-c178-ffe9-5c04-e5c9fe62a7ac,YUNG NAM,KOR,fishing,440101210,2022-12-31 09:55:42+00:00,2023-01-01 00:22:34+00:00,14.45,1.927,45.54,50.14,0.2199,34.728,128.7036,3.0,4.32,1,0,0,0,['8327'],"['IWC', 'WCPFC', 'PICES', 'ACAP']",not_matching_relevant_public_authorization,0,1.5,2.0,1.0,1.0,3.0
c4d9c0536-6bb6-471e-3703-c82f12a38977,OCEAN CHALLENGE,GBR,fishing,232026662,2022-12-29 01:30:30+00:00,2023-01-02 16:14:46+00:00,110.74,2.776,542.32,1953.69,0.123,60.2452,-2.9996,66.0,38.9,1,0,0,0,['5696'],"['NAMMCO', 'ICES', 'ACAP', 'ICCAT', 'IWC', 'NASCO', 'NEAFC']",not_matching_relevant_public_authorization,0,1.5,2.0,1.0,1.0,3.0
d10272b6b-b601-db08-ca59-9f3ccd375441,LULANYU63809,CHN,fishing,412327486,2022-12-31 09:40:46+00:00,2023-01-01 00:32:26+00:00,14.86,2.598,60.93,7.7,0.0667,35.1114,119.452,7.0,0.0,0,0,0,0,['8486'],"['IWC', 'PICES', 'WCPFC', 'ACAP']",not_matching_relevant_public_authorization,0,1.0,2.0,1.0,1.0,2.0
a6e0f42d7-7fec-0c6e-b23a-96d6b4d95c35,AREZAK-9,MAR,fishing,242258400,2022-12-29 01:51:24+00:00,2023-01-02 11:56:36+00:00,106.09,3.439,663.15,1547.04,0.0878,23.4617,-16.4116,39.0,63.96,0,0,0,0,['8368'],"['IWC', 'ACAP', 'NAMMCO', 'ICCAT']",not_matching_relevant_public_authorization,0,1.0,2.0,1.0,1.0,2.0
4daf9a477-7382-d762-d037-2d9a473dc651,LULANYU77323,CHN,fishing,412323924,2022-12-31 08:51:19+00:00,2023-01-01 00:36:03+00:00,15.75,2.737,76.98,7.05,0.0713,35.0367,119.4432,9.0,0.91,0,0,0,0,['8486'],"['ACAP', 'PICES', 'WCPFC', 'IWC']",not_matching_relevant_public_authorization,0,1.0,2.0,1.0,1.0,2.0
e5c8e0d29-9ea3-95c7-5cd7-57148dc9231e,BARENTSZEE OF LADRAM,GBR,fishing,235000360,2022-12-29 17:30:11+00:00,2023-01-03 04:13:13+00:00,106.72,3.801,654.75,3186.09,0.1612,49.9998,-3.1989,50.0,49.93,0,0,0,0,['5696'],"['IWC', 'ICCAT', 'NEAFC', 'ACAP', 'NASCO', 'NAMMCO', 'ICES']",not_matching_relevant_public_authorization,0,1.0,2.0,1.0,1.0,2.0
be052054b-b10a-679c-310b-ab162206cfee,MINXIAYU09760,CHN,fishing,412449022,2022-12-31 10:03:47+00:00,2023-01-01 00:54:20+00:00,14.84,2.818,72.07,575.32,0.4739,29.4704,123.8303,124.0,113.1,0,0,0,0,['8486'],"['APFIC', 'ACAP', 'WCPFC', 'IWC']",not_matching_relevant_public_authorization,0,1.0,2.0,1.0,1.0,2.0
3e9d6df4d-de7c-a8bf-3e2b-46c20c65a8d2,NGOC HAN C28,VNM,fishing,574081005,2022-12-31 10:04:38+00:00,2023-01-01 05:01:25+00:00,18.95,2.071,43.89,277.85,0.8503,9.1465,107.3711,74.0,139.09,0,0,0,0,['8484'],"['WCPFC', 'APFIC', 'ACAP', 'SEAFDEC', 'IWC']",not_matching_relevant_public_authorization,0,1.0,2.0,1.0,1.0,2.0
2dad11eff-f705-d185-d492-ed591893aefc,FV ERISPOE,FRA,fishing,227142300,2022-12-28 22:25:02+00:00,2023-01-01 06:58:02+00:00,80.55,2.77,403.88,1318.83,0.159,49.5917,-5.3349,54.0,56.87,0,0,0,0,['5696'],"['NEAFC', 'NAMMCO', 'ICCAT', 'IWC', 'NASCO', 'ACAP', 'ICES']",not_matching_relevant_public_authorization,0,1.0,2.0,1.0,1.0,2.0
3f4af6610-0b1f-9038-8e42-1d3d9ac5e6fb,XINYONGCHANG189,CHN,fishing,412345849,2022-12-25 04:26:27+00:00,2023-01-01 22:40:25+00:00,186.23,3.276,1102.9,1060.23,0.0438,21.5429,112.2121,20.0,17.63,0,0,0,0,['8486'],"['WCPFC', 'ACAP', 'IWC', 'APFIC']",not_matching_relevant_public_authorization,0,1.0,2.0,1.0,1.0,2.0
39a0c3b11-1c0c-ff67-2822-96d9274c8731,HAENG UN HO       AI,KOR,fishing,440510790,2022-12-31 09:57:41+00:00,2023-01-01 03:13:22+00:00,17.26,2.054,53.78,31.48,0.3153,36.5473,125.2778,31.0,75.17,0,0,0,0,['8327'],"['PICES', 'IWC', 'ACAP', 'WCPFC']",not_matching_relevant_public_authorization,0,1.0,2.0,1.0,1.0,2.0
2bfd9a249-9aaa-005f-1dcd-43d14b6aad75,ZHEJIAOYU71031,CHN,fishing,412412262,2022-12-31 09:56:42+00:00,2023-01-01 05:24:12+00:00,19.46,2.907,102.63,793.8,0.6207,29.6338,122.8283,53.0,44.65,0,0,0,0,['8486'],"['WCPFC', 'IWC', 'ACAP', 'APFIC']",not_matching_relevant_public_authorization,0,1.0,2.0,1.0,1.0,2.0
be6c241fe-ecf6-45b4-1afd-4c90d3304998,ZHEPINGYU80199,CHN,fishing,412433688,2022-12-31 09:55:18+00:00,2023-01-01 11:32:55+00:00,25.63,2.871,96.77,338.37,0.2687,28.6285,123.2952,99.0,97.55,0,0,0,0,['8486'],"['APFIC', 'IWC', 'ACAP', 'WCPFC']",not_matching_relevant_public_authorization,0,1.0,2.0,1.0,1.0,2.0
97bf7ba3e-ecd4-edb1-efde-d167fea2bc42,77MYEONG CHEON,KOR,fishing,440159630,2022-12-31 09:53:26+00:00,2023-01-01 06:07:49+00:00,20.24,1.791,46.23,49.78,0.2363,34.2525,128.363,37.0,34.37,0,0,0,0,['8327'],"['ACAP', 'IWC', 'PICES', 'WCPFC']",not_matching_relevant_public_authorization,0,1.0,2.0,1.0,1.0,2.0
493e298f3-3dd4-c37c-ab48-f0f085cc3657,101YOOSUNG,KOR,fishing,440308650,2022-12-31 08:51:42+00:00,2023-01-01 08:14:31+00:00,23.38,1.523,40.98,81.25,0.4405,34.3848,128.6757,36.0,28.53,0,0,0,0,['8327'],"['ACAP', 'IWC', 'PICES', 'WCPFC']",not_matching_relevant_public_authorization,0,1.0,2.0,1.0,1.0,2.0
00b7306eb-ba89-7843-3772-bdcaefb93464,LU LAN YU 77455,CHN,fishing,412332847,2022-12-31 08:52:23+00:00,2023-01-01 00:34:25+00:00,15.7,2.724,89.58,9.29,0.0482,35.1129,119.4508,6.0,0.0,0,0,0,0,['8486'],"['PICES', 'IWC', 'ACAP', 'WCPFC']",not_matching_relevant_public_authorization,0,1.0,2.0,1.0,1.0,2.0
196c7b060-05dd-36dc-8c22-20df62c83244,ZHEPINGYU80263,CHN,fishing,412433972,2022-12-31 08:55:44+00:00,2023-01-01 05:09:20+00:00,20.23,2.734,65.11,453.66,0.7219,28.4435,123.2325,121.0,118.94,0,0,0,0,['8486'],"['IWC', 'WCPFC', 'ACAP', 'APFIC']",not_matching_relevant_public_authorization,0,1.0,2.0,1.0,1.0,2.0
990ca1eed-db48-6a2e-c08d-9aad8f67d21b,2022CHEONGHAE,KOR,fishing,440705710,2022-12-31 08:55:51+00:00,2023-01-01 00:21:27+00:00,15.43,0.738,14.48,12.02,0.8179,32.7048,126.4677,65.0,67.85,0,0,0,0,['8327'],"['ACAP', 'IWC', 'WCPFC', 'PICES']",not_matching_relevant_public_authorization,0,1.0,2.0,1.0,1.0,2.0
49a417cf8-86ef-9f3f-1648-7ba1cecd4c98,LU LAN YU 77583,CHN,fishing,412332629,2022-12-31 08:55:56+00:00,2023-01-01 01:30:52+00:00,16.58,2.006,56.4,39.13,0.18,35.0525,119.427,6.0,2.4,0,0,0,0,['8486'],"['IWC', 'ACAP', 'PICES', 'WCPFC']",not_matching_relevant_public_authorization,0,1.0,2.0,1.0,1.0,2.0
6eb121ec3-3bdf-b549-2fa1-4118ea6d71ee,LURONGYU58921,CHN,fishing,412338202,2022-12-31 08:29:54+00:00,2023-01-01 14:28:09+00:00,29.97,3.086,159.5,433.07,0.2208,35.2191,124.1587,106.0,107.26,0,0,0,0,['8327'],"['IWC', 'ACAP', 'PICES', 'WCPFC']",not_matching_relevant_public_authorization,0,1.0,2.0,1.0,1.0,2.0
98ca2c7e9-9b9b-71b4-acc7-4e2984956d53,ZHELINGYU23182,CHN,fishing,412416683,2022-12-31 08:30:41+00:00,2023-01-01 12:30:40+00:00,28.0,3.105,154.27,237.92,0.2457,28.5585,123.5869,119.0,117.81,0,0,0,0,['8486'],"['ACAP', 'IWC', 'APFIC', 'WCPFC']",not_matching_relevant_public_authorization,0,1.0,2.0,1.0,1.0,2.0
843f84b47-78af-c5bf-5313-e5831c901155,LULANYU77620,CHN,fishing,412332632,2022-12-31 08:31:21+00:00,2023-01-01 00:14:56+00:00,15.73,2.554,61.88,10.73,0.0894,35.0283,119.4453,11.0,1.11,0,0,0,0,['8486'],"['WCPFC', 'IWC', 'ACAP', 'PICES']",not_matching_relevant_public_authorization,0,1.0,2.0,1.0,1.0,2.0
2a46d118f-f82c-ab88-9bed-c5c36c45b6e1,YUEWUYU50268,CHN,fishing,412537153,2022-12-31 08:31:39+00:00,2023-01-01 00:42:10+00:00,16.18,2.492,26.66,8.9,0.1583,21.0374,110.5684,2.0,5.56,0,0,0,0,['8486'],"['ACAP', 'APFIC', 'WCPFC', 'IWC']",not_matching_relevant_public_authorization,0,1.0,2.0,1.0,1.0,2.0
190f2d47f-f28c-8c45-1069-8e296f7a7698,SUGANYU19306,CHN,fishing,412354085,2022-12-31 08:32:40+00:00,2023-01-02 01:56:55+00:00,41.4,2.809,192.88,73.57,0.0648,34.9041,119.7126,22.0,1.11,0,0,0,0,['8486'],"['ACAP', 'IWC', 'WCPFC', 'PICES']",not_matching_relevant_public_authorization,0,1.0,2.0,1.0,1.0,2.0
2e253dfdd-d32c-9906-3a99-2711c5ad42eb,,,fishing,200010964,2022-12-31 08:33:00+00:00,2023-01-01 12:10:54+00:00,27.63,3.128,151.99,246.01,0.2496,28.5583,123.5851,119.0,117.81,0,0,0,0,['8486'],"['ACAP', 'IWC', 'APFIC', 'WCPFC']",not_matching_relevant_public_authorization,0,1.0,2.0,1.0,1.0,2.0
386ea3059-9c57-e247-bff8-c2c6d7fd6074,SUGUANYUNYU03668,CHN,fishing,412358156,2022-12-31 08:33:01+00:00,2023-01-01 02:30:51+00:00,17.96,3.614,97.7,30.99,0.1021,34.7598,119.8679,26.0,6.92,0,0,0,0,['8486'],"['IWC', 'WCPFC', 'ACAP', 'PICES']",not_matching_relevant_public_authorization,0,1.0,2.0,1.0,1.0,2.0
00e773b5d-db40-03ff-427f-62770ef2e620,ZHEPINGYU80180,CHN,fishing,412433673,2022-12-31 08:33:39+00:00,2023-01-01 06:54:13+00:00,22.34,2.035,83.16,716.55,0.4552,28.5154,123.2635,93.0,91.24,0,0,0,0,['8486'],"['ACAP', 'WCPFC', 'IWC', 'APFIC']",not_matching_relevant_public_authorization,0,1.0,2.0,1.0,1.0,2.0
8c2b627ce-e78d-3d0b-46e1-76941e93d263,ZHELINGYU96021,CHN,fishing,412418706,2022-12-31 08:34:11+00:00,2023-01-01 16:41:02+00:00,32.11,2.693,147.67,315.49,0.2108,30.3595,122.8874,11.0,10.6,0,0,0,0,['8486'],"['WCPFC', 'ACAP', 'IWC', 'PICES']",not_matching_relevant_public_authorization,0,1.0,2.0,1.0,1.0,2.0
54d8a5f2a-a3ad-3462-5b4b-2b942279f807,ZHEXIANGYU50159,CHN,fishing,412436281,2022-12-31 08:34:50+00:00,2023-01-01 13:36:30+00:00,29.03,3.427,164.01,541.2,0.3413,30.9843,123.0949,24.0,15.52,0,0,0,0,['8486'],"['IWC', 'ACAP', 'WCPFC', 'PICES']",not_matching_relevant_public_authorization,0,1.0,2.0,1.0,1.0,2.0
5e4cc6ee9-9b15-4731-3a4b-4e267826ef80,ZHEXIANGYU42034,CHN,fishing,412435308,2022-12-31 08:36:18+00:00,2023-01-01 07:35:15+00:00,22.98,3.701,148.35,1559.63,0.3792,31.1469,123.8354,75.0,46.75,0,0,0,0,['8486'],"['IWC', 'ACAP', 'WCPFC', 'PICES']",not_matching_relevant_public_authorization,0,1.0,2.0,1.0,1.0,2.0
8312971a7-7fdb-34d5-1058-14c4fb5fccc7,PKFB1891,MYS,fishing,533903579,2022-12-30 03:59:34+00:00,2023-01-01 05:10:31+00:00,49.18,2.789,249.44,715.26,0.1622,4.0966,100.4244,27.0,29.16,0,0,0,0,['8483'],"['SEAFDEC', 'IOTC', 'IWC', 'ACAP', 'APFIC']",not_matching_relevant_public_authorization,0,1.0,2.0,1.0,1.0,2.0
b7c1196df-f1a8-0e1d-afb0-03801aa821f8,ZHEXIANGYU31011,CHN,fishing,412436509,2022-12-30 05:12:39+00:00,2023-01-01 00:37:29+00:00,43.41,3.842,277.66,3976.14,0.3233,31.7422,123.9362,115.0,89.1,0,0,0,0,['8486'],"['PICES', 'ACAP', 'IWC', 'WCPFC']",not_matching_relevant_public_authorization,0,1.0,2.0,1.0,1.0,2.0
d7049ae6c-c92f-3ecd-5b28-5f15228ec884,11 MYUNG JUNG,KOR,fishing,440105150,2022-12-30 05:26:35+00:00,2023-01-01 02:37:21+00:00,45.18,2.101,113.0,171.06,0.2189,34.2824,128.448,36.0,31.48,0,0,0,0,['8327'],"['ACAP', 'IWC', 'WCPFC', 'PICES']",not_matching_relevant_public_authorization,0,1.0,2.0,1.0,1.0,2.0
375015ffa-a3b7-64dd-1c15-27b62b3d1023,LULANYUYANG79050,CHN,fishing,412333143,2022-12-30 06:26:14+00:00,2023-01-01 03:59:30+00:00,45.55,0.531,12.28,2.47,0.1944,35.0305,119.6125,25.0,1.11,0,0,0,0,['8486'],"['IWC', 'ACAP', 'PICES', 'WCPFC']",not_matching_relevant_public_authorization,0,1.0,2.0,1.0,1.0,2.0
384b26a26-604a-8389-9a4f-450dddf6ad4b,GV HELENUS FR121,GBR,fishing,233353000,2022-12-30 06:56:15+00:00,2023-01-05 03:51:46+00:00,140.93,1.18,275.98,128.67,0.0617,61.6489,1.5519,147.0,10.99,0,0,0,0,"['5686', '5696']","['IWC', 'ICES', 'ICCAT', 'NEAFC', 'NAMMCO', 'ACAP', 'NASCO']",not_matching_relevant_public_authorization,0,1.0,2.0,1.0,1.0,2.0
6ab648dc5-5861-73ab-2a2a-6dc91693804c,ZHEPUYU68017,CHN,fishing,412422517,2022-12-30 06:57:01+00:00,2023-01-01 08:24:50+00:00,49.46,3.412,292.27,271.64,0.0912,31.2767,123.8871,106.0,81.09,0,0,0,0,['8486'],"['WCPFC', 'PICES', 'ACAP', 'IWC']",not_matching_relevant_public_authorization,0,1.0,2.0,1.0,1.0,2.0
fe1e9352c-cf5a-c841-4d2b-ecf777bb3442,ZHEPUYU68232,CHN,fishing,412420014,2022-12-30 07:06:38+00:00,2023-01-01 08:16:49+00:00,49.17,3.708,300.44,260.02,0.0807,31.2724,123.8884,108.0,81.78,0,0,0,0,['8486'],"['WCPFC', 'ACAP', 'PICES', 'IWC']",not_matching_relevant_public_authorization,0,1.0,2.0,1.0,1.0,2.0
6f3472e52-292c-d3cb-aedf-18fdf663fd17,888,CHN,fishing,413888988,2022-12-30 07:42:52+00:00,2023-01-02 07:24:31+00:00,71.69,2.89,337.97,364.69,0.0913,21.1716,109.0558,17.0,12.97,0,0,0,0,['8486'],"['APFIC', 'IWC', 'WCPFC', 'ACAP']",not_matching_relevant_public_authorization,0,1.0,2.0,1.0,1.0,2.0
d9bb88532-27e4-ca45-72d1-e1cd394b8670,ZHEPUYU68272,CHN,fishing,412423768,2022-12-30 07:43:01+00:00,2023-01-01 08:19:42+00:00,48.61,3.393,243.96,321.93,0.1096,31.2765,123.8978,108.0,81.78,0,0,0,0,['8486'],"['WCPFC', 'ACAP', 'IWC', 'PICES']",not_matching_relevant_public_authorization,0,1.0,2.0,1.0,1.0,2.0
18ccb4dcf-f3c7-335b-e15c-e322f20c1cc1,FREESIA,ZAF,fishing,601172000,2022-12-29 19:52:40+00:00,2023-01-01 10:45:41+00:00,62.88,3.685,408.08,981.65,0.1088,-35.5422,18.988,111.0,123.53,0,0,0,0,['8396'],"['ACAP', 'CCSBT-Primary-Area', 'ICCAT', 'CCSBT', 'IWC']",not_matching_relevant_public_authorization,0,1.0,2.0,1.0,1.0,2.0
ac91ea218-8598-f043-cff6-72d1d5729867,DANA-1,MAR,fishing,242022400,2022-12-29 20:12:07+00:00,2023-01-01 19:12:55+00:00,71.01,3.655,444.89,1238.63,0.1128,23.4358,-16.4515,36.0,63.15,0,0,0,0,['8368'],"['NAMMCO', 'ACAP', 'IWC', 'ICCAT']",not_matching_relevant_public_authorization,0,1.0,2.0,1.0,1.0,2.0
4f8c0ac47-7ad5-5a71-4a1b-7a62fa774905,ZHELINGYU29977,CHN,fishing,412416235,2022-12-29 20:20:04+00:00,2023-01-01 00:06:28+00:00,51.77,2.076,188.67,2221.54,0.4154,33.7958,124.0748,120.0,122.88,0,0,0,0,['8327'],"['IWC', 'PICES', 'WCPFC', 'ACAP']",not_matching_relevant_public_authorization,0,1.0,2.0,1.0,1.0,2.0
0800324fe-e7ea-9d30-47de-21e0473465e7,ELISABETH OF LADRAM,GBR,fishing,232040373,2022-12-29 20:35:39+00:00,2023-01-04 09:25:14+00:00,132.83,3.867,968.86,876.37,0.0509,49.9007,-4.307,45.0,45.04,0,0,0,0,['5696'],"['ACAP', 'NAMMCO', 'IWC', 'NEAFC', 'ICES', 'NASCO', 'ICCAT']",not_matching_relevant_public_authorization,0,1.0,2.0,1.0,1.0,2.0
481199abb-b8c9-685d-d320-6065b10a58e4,213 HAE IN HO,KOR,fishing,440331010,2022-12-29 20:42:40+00:00,2023-01-01 02:50:22+00:00,54.13,1.164,57.89,15.0,0.0964,33.9506,124.5799,51.0,54.22,0,0,0,0,['8327'],"['PICES', 'WCPFC', 'IWC', 'ACAP']",not_matching_relevant_public_authorization,0,1.0,2.0,1.0,1.0,2.0
a9ba31279-9067-54fc-9d2d-5480c3023561,6666,,fishing,200528029,2022-12-29 20:57:03+00:00,2023-01-01 00:10:44+00:00,51.23,2.476,163.97,417.95,0.1763,35.7659,121.2316,27.0,13.72,0,0,0,0,['8486'],"['IWC', 'WCPFC', 'PICES', 'ACAP']",not_matching_relevant_public_authorization,0,1.0,2.0,1.0,1.0,2.0
00449a6a6-6d98-bc3c-0bad-6cdff78fff58,PACIFIC CHALLENGER,NZL,fishing,512000080,2022-12-29 20:59:06+00:00,2023-01-01 01:29:11+00:00,52.5,2.674,250.4,738.02,0.1981,-43.0784,176.7868,198.0,248.79,0,0,0,0,['8455'],"['IWC', 'ACAP', 'CCSBT-Primary-Area', 'CCSBT', 'FFA', 'WCPFC']",not_matching_relevant_public_authorization,0,1.0,2.0,1.0,1.0,2.0
8e29e2bd6-64c0-4fba-8005-d17304528e8d,VENCEDOR C,BRA,fishing,710291281,2022-12-30 09:36:17+00:00,2023-01-03 13:22:09+00:00,99.76,1.761,246.72,2102.61,0.284,-32.1185,-49.9734,134.0,165.59,0,0,0,0,['8464'],"['ACAP', 'IWC', 'ICCAT']",not_matching_relevant_public_authorization,0,1.0,2.0,1.0,1.0,2.0
a3e147614-4a99-14a1-5ad6-5c77cd1226ac,00903,,fishing,900000903,2022-12-30 09:41:08+00:00,2023-01-01 06:08:41+00:00,44.46,3.827,307.62,2698.73,0.2756,31.1352,123.7041,63.0,33.45,0,0,0,0,['8486'],"['IWC', 'ACAP', 'PICES', 'WCPFC']",not_matching_relevant_public_authorization,0,1.0,2.0,1.0,1.0,2.0
43c3774f9-977b-60fb-3739-8f5e894871a9,LULANYU61801,CHN,fishing,412323016,2022-12-30 09:41:43+00:00,2023-01-02 01:03:52+00:00,63.37,2.0,218.56,171.03,0.088,35.4375,120.0589,27.0,9.14,0,0,0,0,['8486'],"['ACAP', 'WCPFC', 'PICES', 'IWC']",not_matching_relevant_public_authorization,0,1.0,2.0,1.0,1.0,2.0
1fa6fb2d6-6057-e346-b7e5-a0ffbdc83cd9,Z18,CHN,fishing,412520104,2022-12-30 09:48:24+00:00,2023-01-01 07:03:11+00:00,45.25,3.848,295.74,1628.35,0.1928,31.1028,123.7324,70.0,41.74,0,0,0,0,['8486'],"['ACAP', 'WCPFC', 'IWC', 'PICES']",not_matching_relevant_public_authorization,0,1.0,2.0,1.0,1.0,2.0
04b826d7c-c63f-42be-7014-00fba2933f0c,ZHEXIANGYV33001,CHN,fishing,412437902,2022-12-30 09:56:47+00:00,2023-01-01 07:45:23+00:00,45.81,3.604,287.68,4070.36,0.363,31.6453,123.93,99.0,73.11,0,0,0,0,['8486'],"['ACAP', 'IWC', 'WCPFC', 'PICES']",not_matching_relevant_public_authorization,0,1.0,2.0,1.0,1.0,2.0
afa3d4c7d-d668-7899-3b4a-8d641b18d6ee,MINLIANYU68389,CHN,fishing,412442954,2022-12-30 10:05:52+00:00,2023-01-01 06:42:32+00:00,44.61,3.619,292.87,3145.3,0.3089,31.1145,123.7258,58.0,34.63,0,0,0,0,['8486'],"['PICES', 'IWC', 'ACAP', 'WCPFC']",not_matching_relevant_public_authorization,0,1.0,2.0,1.0,1.0,2.0
22c6689f5-5b35-4519-1aad-7df42b701eda,ZHEXIANGYU23023,CHN,fishing,412436388,2022-12-30 10:06:40+00:00,2023-01-01 07:00:05+00:00,44.89,3.644,294.11,3183.04,0.3089,31.1107,123.7313,58.0,34.63,0,0,0,0,['8486'],"['WCPFC', 'PICES', 'ACAP', 'IWC']",not_matching_relevant_public_authorization,0,1.0,2.0,1.0,1.0,2.0
8aaf49d97-7a9f-396d-c365-d39c8522584a,YUEJIANGCHENGYU90680,CHN,fishing,412463665,2022-12-30 10:17:41+00:00,2023-01-03 10:00:41+00:00,95.72,2.937,494.02,1499.44,0.1448,21.318,112.2853,36.0,24.66,0,0,0,0,['8486'],"['ACAP', 'WCPFC', 'APFIC', 'IWC']",not_matching_relevant_public_authorization,0,1.0,2.0,1.0,1.0,2.0
a8e0161c2-258f-f651-6307-ec885fd93ed6,ZHEPUYU18399,CHN,fishing,412421479,2022-12-30 10:37:36+00:00,2023-01-03 05:34:19+00:00,90.95,2.37,358.99,403.55,0.1012,30.1531,123.0833,29.0,21.21,0,0,0,0,['8486'],"['APFIC', 'PICES', 'IWC', 'ACAP', 'WCPFC']",not_matching_relevant_public_authorization,0,1.0,2.0,1.0,1.0,2.0
220dd7996-654e-bcdb-c4a7-da3d8822a341,MIN LIAN YU 68389,CHN,fishing,412441030,2022-12-30 10:48:39+00:00,2023-01-01 06:26:28+00:00,43.63,3.596,283.7,2985.86,0.3057,31.1165,123.7243,60.0,33.76,0,0,0,0,['8486'],"['IWC', 'WCPFC', 'ACAP', 'PICES']",not_matching_relevant_public_authorization,0,1.0,2.0,1.0,1.0,2.0
fe4090c41-1ef7-40f4-85bf-575b9086c109,MYEONG GWANG 2,KOR,fishing,440504490,2022-12-30 11:19:24+00:00,2023-01-01 04:13:08+00:00,40.9,2.14,141.27,202.77,0.1426,36.3482,125.0198,69.0,96.97,0,0,0,0,['8327'],"['ACAP', 'IWC', 'PICES', 'WCPFC']",not_matching_relevant_public_authorization,0,1.0,2.0,1.0,1.0,2.0
92698d06b-b02b-9978-8492-4f4127e4a312,ZHEXIANGYU20011,CHN,fishing,412436293,2022-12-30 01:28:16+00:00,2023-01-01 03:31:08+00:00,50.05,2.574,231.69,7829.49,0.6685,29.8319,123.2168,75.0,53.55,0,0,0,0,['8486'],"['WCPFC', 'APFIC', 'ACAP', 'PICES', 'IWC']",not_matching_relevant_public_authorization,0,1.0,2.0,1.0,1.0,2.0
0c8ccde73-389d-84ad-0053-2bc4d003a2c1,STAR SHRIMPER V,NGA,fishing,657214800,2022-12-30 02:15:00+00:00,2023-01-01 05:00:07+00:00,50.75,2.544,227.63,327.67,0.1566,4.23,6.8458,18.0,45.04,0,0,0,0,['8474'],"['ICCAT', 'IWC', 'FCWC', 'ACAP', 'NAMMCO']",not_matching_relevant_public_authorization,0,1.0,2.0,1.0,1.0,2.0
2b24fb4c1-1d39-fed5-f30a-d1604f4399e3,CORNISHMAN PZ512,GBR,fishing,232005610,2022-12-30 02:15:03+00:00,2023-01-05 10:35:20+00:00,152.34,3.932,1098.01,1735.05,0.0543,49.878,-4.4339,55.0,54.93,0,0,0,0,['5696'],"['ICCAT', 'NASCO', 'NAMMCO', 'ACAP', 'IWC', 'ICES', 'NEAFC']",not_matching_relevant_public_authorization,0,1.0,2.0,1.0,1.0,2.0
7f6abc483-3154-71ec-88b1-d76e9472bae7,ZHEXIANGYU21021,CHN,fishing,412435381,2022-12-30 02:25:34+00:00,2023-01-01 03:00:43+00:00,48.59,2.58,226.66,8022.37,0.709,29.8479,123.2221,75.0,55.33,0,0,0,0,['8486'],"['PICES', 'ACAP', 'WCPFC', 'APFIC', 'IWC']",not_matching_relevant_public_authorization,0,1.0,2.0,1.0,1.0,2.0
de2018a8e-e7e3-99a6-d15e-17bf23c507a9,ZHEPUYU19101,CHN,fishing,412410113,2022-12-30 03:44:23+00:00,2023-01-01 05:34:26+00:00,49.83,2.577,225.0,532.32,0.1656,30.0183,123.116,38.0,34.47,0,0,0,0,['8486'],"['ACAP', 'IWC', 'WCPFC', 'APFIC', 'PICES']",not_matching_relevant_public_authorization,0,1.0,2.0,1.0,1.0,2.0
16481e523-3bda-ea26-1a24-b0410c624db7,GALRILRI,KOR,fishing,440506030,2022-12-31 09:40:07+00:00,2023-01-01 00:35:24+00:00,14.92,1.704,36.53,31.14,0.4179,36.6706,124.9684,54.0,97.94,0,0,0,0,['8327'],"['PICES', 'ACAP', 'IWC', 'WCPFC']",not_matching_relevant_public_authorization,0,1.0,2.0,1.0,1.0,2.0
cc5dc7826-67ba-dfea-d05b-88d8fdb3efa8,SUQIYU12118,CHN,fishing,412012118,2022-12-31 09:40:10+00:00,2023-01-01 07:19:09+00:00,21.65,1.549,13.64,3.77,0.2661,31.9193,122.1328,26.0,27.57,0,0,0,0,['8486'],"['WCPFC', 'ACAP', 'IWC', 'PICES']",not_matching_relevant_public_authorization,0,1.0,2.0,1.0,1.0,2.0
61479e04b-be22-764a-d2fc-e67ccbb16c70,ZHEJIAOYU70054,CHN,fishing,412412231,2022-12-30 11:48:36+00:00,2023-01-01 06:15:24+00:00,42.45,2.575,196.71,726.4,0.2371,29.8391,122.9002,45.0,19.18,0,0,0,0,['8486'],"['IWC', 'PICES', 'WCPFC', 'ACAP', 'APFIC']",not_matching_relevant_public_authorization,0,1.0,2.0,1.0,1.0,2.0
eb868f165-5504-1751-348b-0d910af802dc,AZHAR-6,MAR,fishing,242261400,2022-12-30 11:55:24+00:00,2023-01-01 12:28:39+00:00,48.55,3.412,292.22,553.2,0.1361,23.3522,-16.3674,18.0,47.36,0,0,0,0,['8368'],"['NAMMCO', 'ICCAT', 'IWC', 'ACAP']",not_matching_relevant_public_authorization,0,1.0,2.0,1.0,1.0,2.0
0b50e9276-6d28-b3d6-46a2-b8ed8bdfe80e,WELDON  GURUS  BOAT,IND,fishing,419817479,2022-12-30 12:16:51+00:00,2023-01-01 03:03:35+00:00,38.78,2.283,12.85,75.2,0.9557,7.3835,75.622,192.0,193.63,0,0,0,0,['8480'],"['IWC', 'BOBP-IGO', 'IOTC', 'ACAP']",not_matching_relevant_public_authorization,0,1.0,2.0,1.0,1.0,2.0
2282bf2cb-b160-e57b-9900-b0943d0f74eb,LULANYU61111,CHN,fishing,412361111,2022-12-30 12:46:11+00:00,2023-01-03 01:01:05+00:00,84.25,2.117,346.23,188.07,0.0576,35.5081,120.0336,19.0,4.66,0,0,0,0,['8486'],"['PICES', 'WCPFC', 'ACAP', 'IWC']",not_matching_relevant_public_authorization,0,1.0,2.0,1.0,1.0,2.0
af1c842ab-ba2a-8f0d-9dfa-c9cb94ce4e17,SELMA-6,MAR,fishing,242281400,2022-12-30 12:50:22+00:00,2023-01-01 04:09:24+00:00,39.32,3.348,243.09,742.97,0.1594,23.5302,-16.4419,27.0,36.21,0,0,0,0,['8368'],"['IWC', 'ICCAT', 'NAMMCO', 'ACAP']",not_matching_relevant_public_authorization,0,1.0,2.0,1.0,1.0,2.0
4b23c5056-6b52-2b77-d313-ebd8309e10b4,STAR SHRIMPER XXV,NGA,fishing,657216800,2022-12-30 12:55:56+00:00,2023-01-02 16:31:32+00:00,75.59,2.585,341.05,160.77,0.0662,4.2088,6.4738,19.0,30.52,0,0,0,0,['8474'],"['FCWC', 'ACAP', 'NAMMCO', 'ICCAT', 'IWC']",not_matching_relevant_public_authorization,0,1.0,2.0,1.0,1.0,2.0
125f92d0e-e051-3af3-ce1e-e690189182b4,LURONGYU51870,CHN,fishing,412320902,2022-12-30 12:58:52+00:00,2023-01-01 11:09:04+00:00,46.17,3.578,253.05,94.45,0.0666,38.1171,121.109,10.0,11.08,0,0,0,0,['8486'],"['IWC', 'PICES', 'ACAP', 'WCPFC']",not_matching_relevant_public_authorization,0,1.0,2.0,1.0,1.0,2.0
3ac466333-37e8-cee9-5bfd-86c297c68f0a,LULANYU60033,CHN,fishing,412322872,2022-12-30 13:02:02+00:00,2023-01-01 01:20:19+00:00,36.3,2.259,146.91,256.69,0.1562,35.1111,120.1923,60.0,3.52,0,0,0,0,['8486'],"['PICES', 'WCPFC', 'ACAP', 'IWC']",not_matching_relevant_public_authorization,0,1.0,2.0,1.0,1.0,2.0
06f793544-4079-542b-c540-9c473666c6a7,ZHEXIANGYU10180,CHN,fishing,412418566,2022-12-30 13:03:06+00:00,2023-01-01 00:22:26+00:00,35.32,2.495,152.37,350.15,0.1926,28.9459,123.4427,105.0,104.17,0,0,0,0,['8486'],"['APFIC', 'WCPFC', 'IWC', 'ACAP']",not_matching_relevant_public_authorization,0,1.0,2.0,1.0,1.0,2.0
fb68fa1a3-348c-bdb1-e0b1-11ef3c5b7dcb,,,fishing,200012283,2022-12-30 13:27:04+00:00,2023-01-02 06:12:25+00:00,64.76,3.151,348.31,1581.33,0.1957,21.8476,113.749,19.0,19.61,0,0,0,0,['8486'],"['IWC', 'WCPFC', 'APFIC', 'ACAP']",not_matching_relevant_public_authorization,0,1.0,2.0,1.0,1.0,2.0
93df38cca-ae71-1300-7b28-aad75e999241,YUE SHAN CHENG YU,CHN,fishing,412472568,2022-12-30 13:41:34+00:00,2023-01-04 01:47:26+00:00,108.1,3.305,623.34,1521.19,0.0978,21.8668,113.8093,21.0,22.07,0,0,0,0,['8486'],"['ACAP', 'IWC', 'APFIC', 'WCPFC']",not_matching_relevant_public_authorization,0,1.0,2.0,1.0,1.0,2.0
dd1f50fd0-026b-38e9-038d-c4e93171f4ae,86002,,fishing,599986002,2022-12-30 08:09:58+00:00,2023-01-01 06:13:47+00:00,46.06,3.934,311.48,2561.12,0.2543,31.115,123.7115,63.0,32.66,0,0,0,0,['8486'],"['IWC', 'WCPFC', 'PICES', 'ACAP']",not_matching_relevant_public_authorization,0,1.0,2.0,1.0,1.0,2.0
918b0eb07-7ddd-6010-8238-84bf3d4eea80,ZHEXIANGYU30101,CHN,fishing,412436322,2022-12-30 08:20:56+00:00,2023-01-01 07:21:31+00:00,47.01,3.779,308.59,1662.23,0.1868,31.0481,123.7183,67.0,36.87,0,0,0,0,['8486'],"['PICES', 'WCPFC', 'IWC', 'ACAP']",not_matching_relevant_public_authorization,0,1.0,2.0,1.0,1.0,2.0
f8844f56b-b406-3976-8fc6-d754f070a826,ZHEXIANGYU31038,,fishing,998531038,2022-12-30 08:45:20+00:00,2023-01-01 07:19:48+00:00,46.57,3.667,307.64,2484.76,0.2392,31.0813,123.7168,65.0,33.9,0,0,0,0,['8486'],"['PICES', 'IWC', 'WCPFC', 'ACAP']",not_matching_relevant_public_authorization,0,1.0,2.0,1.0,1.0,2.0
12b9286c2-22a7-1779-2be2-85aa43edb92a,ZHEPUYU19139,,fishing,900219139,2022-12-30 16:49:21+00:00,2023-01-01 12:35:11+00:00,43.76,2.219,173.28,116.69,0.1875,29.7742,122.7752,42.0,14.78,0,0,0,0,['8486'],"['IWC', 'WCPFC', 'ACAP', 'APFIC']",not_matching_relevant_public_authorization,0,1.0,2.0,1.0,1.0,2.0
ce03027fd-d4f2-8757-6fc9-4958663099ed,ZHEXIANGYU50231,CHN,fishing,412435892,2022-12-30 16:56:12+00:00,2023-01-01 00:01:12+00:00,31.08,3.52,185.66,1266.62,0.2746,31.083,123.091,26.0,14.42,0,0,0,0,['8486'],"['IWC', 'ACAP', 'PICES', 'WCPFC']",not_matching_relevant_public_authorization,0,1.0,2.0,1.0,1.0,2.0
9e7ec14c5-5855-89c4-3397-0d8273fd73c8,ZHEXIANGYU50062,CHN,fishing,412419545,2022-12-30 16:57:15+00:00,2023-01-01 00:27:34+00:00,31.51,3.689,204.22,1979.37,0.3195,31.0484,123.1196,27.0,17.78,0,0,0,0,['8486'],"['ACAP', 'PICES', 'IWC', 'WCPFC']",not_matching_relevant_public_authorization,0,1.0,2.0,1.0,1.0,2.0
8d0468181-1bcf-050d-c1b9-66ca67ba1939,ZHEJIAOYU76017,CHN,fishing,412410368,2022-12-30 17:09:06+00:00,2023-01-01 20:21:38+00:00,51.21,2.865,259.81,513.16,0.1778,29.5144,122.811,56.0,51.59,0,0,0,0,['8486'],"['APFIC', 'WCPFC', 'ACAP', 'IWC']",not_matching_relevant_public_authorization,0,1.0,2.0,1.0,1.0,2.0
2b23ef225-5af4-6572-d5f5-18561a19c370,HAN CHANG HO,KOR,fishing,440329440,2022-12-31 09:25:53+00:00,2023-01-01 02:07:45+00:00,16.7,1.012,13.22,35.32,0.791,34.433,128.7272,31.0,17.89,0,0,0,0,['8327'],"['IWC', 'WCPFC', 'ACAP', 'PICES']",not_matching_relevant_public_authorization,0,1.0,2.0,1.0,1.0,2.0
39075e6a0-0d6d-c8e6-2a83-0b8acb952b65,JE103 MYEONGJEONG,KOR,fishing,440019400,2022-12-31 09:27:59+00:00,2023-01-01 02:03:36+00:00,16.59,1.261,13.62,6.86,0.3001,34.2544,128.8099,37.0,31.62,0,0,0,0,['8327'],"['ACAP', 'IWC', 'PICES', 'WCPFC']",not_matching_relevant_public_authorization,0,1.0,2.0,1.0,1.0,2.0
183c4750a-a60e-23b8-f3f5-bc4097804c3d,JILUANYU03233,CHN,fishing,412285618,2022-12-31 09:28:01+00:00,2023-01-01 02:34:55+00:00,17.11,0.891,19.5,2.24,0.4378,38.6494,118.6526,31.0,10.31,0,0,0,0,['8486'],"['ACAP', 'PICES', 'WCPFC', 'IWC']",not_matching_relevant_public_authorization,0,1.0,2.0,1.0,1.0,2.0
d6af45706-6fab-0950-2044-d5f5c666af2f,PKFB 1158,MYS,fishing,533190079,2022-12-31 09:28:54+00:00,2023-01-01 00:33:55+00:00,15.08,0.407,18.42,28.45,0.5565,4.3127,100.4447,13.0,20.43,0,0,0,0,['8483'],"['ACAP', 'IOTC', 'APFIC', 'SEAFDEC', 'IWC']",not_matching_relevant_public_authorization,0,1.0,2.0,1.0,1.0,2.0
e2aedf9d4-4768-b474-befe-9dc20bc56635,SUGANYU19335,CHN,fishing,412353458,2022-12-31 09:29:50+00:00,2023-01-01 00:53:47+00:00,15.4,2.735,71.05,16.57,0.0863,34.9059,119.7496,25.0,1.11,0,0,0,0,['8486'],"['PICES', 'ACAP', 'IWC', 'WCPFC']",not_matching_relevant_public_authorization,0,1.0,2.0,1.0,1.0,2.0
cc712e737-72ba-195b-824c-9685839dc130,303MYEONGJEONG,KOR,fishing,440048450,2022-12-31 09:30:08+00:00,2023-01-01 02:05:09+00:00,16.58,1.395,20.9,7.76,0.2083,34.2934,128.8546,34.0,29.27,0,0,0,0,['8327'],"['WCPFC', 'IWC', 'ACAP', 'PICES']",not_matching_relevant_public_authorization,0,1.0,2.0,1.0,1.0,2.0
da1d805e1-152d-f127-507c-e814224c71f6,ZHELINGYU26879,CHN,fishing,412416544,2022-12-31 09:30:29+00:00,2023-01-01 03:07:46+00:00,17.62,3.05,92.94,251.73,0.3442,28.5806,123.6167,122.0,121.39,0,0,0,0,['8486'],"['IWC', 'ACAP', 'APFIC', 'WCPFC']",not_matching_relevant_public_authorization,0,1.0,2.0,1.0,1.0,2.0
70b5e041b-bf3e-3d55-2439-eb7faed1805a,ZHELINGYU27851,CHN,fishing,412419701,2022-12-31 09:34:02+00:00,2023-01-01 16:54:02+00:00,31.33,0.299,6.71,6.77,0.6257,33.7897,124.025,104.0,107.39,0,0,0,0,['8327'],"['ACAP', 'PICES', 'IWC', 'WCPFC']",not_matching_relevant_public_authorization,0,1.0,2.0,1.0,1.0,2.0
735d1bf6b-b839-9e35-6c51-8cc6e378b409,KWANG JIN,KOR,fishing,440147020,2022-12-31 09:35:07+00:00,2023-01-01 19:05:21+00:00,33.5,0.926,12.51,4.81,0.2526,33.9479,124.5889,49.0,52.43,0,0,0,0,['8327'],"['WCPFC', 'ACAP', 'PICES', 'IWC']",not_matching_relevant_public_authorization,0,1.0,2.0,1.0,1.0,2.0
385c735c5-5f0a-e117-7d8e-0afe4cfe5bb7,RUNGREUNG 7,THA,fishing,567222250,2022-12-31 09:37:14+00:00,2023-01-01 12:48:12+00:00,27.18,2.448,94.37,233.87,0.5312,12.5509,100.4404,43.0,58.65,0,0,0,0,['8332'],"['IWC', 'ACAP', 'APFIC', 'SEAFDEC', 'WCPFC']",not_matching_relevant_public_authorization,0,1.0,2.0,1.0,1.0,2.0
d153a224f-fede-4789-8e6b-9c317c2ea401,,HKG,fishing,477331656,2022-12-31 09:38:04+00:00,2023-01-01 05:40:33+00:00,20.04,2.73,95.71,553.85,0.3529,3.8916,99.973,65.0,64.43,0,0,0,0,['8483'],"['ACAP', 'IOTC', 'SEAFDEC', 'APFIC', 'IWC']",not_matching_relevant_public_authorization,0,1.0,2.0,1.0,1.0,2.0
69abe7779-9d80-5902-55ec-c68670ec071c,MAHAGARP  401,MYS,fishing,533000401,2022-12-31 09:38:29+00:00,2023-01-02 02:14:23+00:00,40.6,2.825,206.16,1691.73,0.3327,4.2817,100.0865,66.0,61.5,0,0,0,0,['8483'],"['ACAP', 'IWC', 'IOTC', 'SEAFDEC', 'APFIC']",not_matching_relevant_public_authorization,0,1.0,2.0,1.0,1.0,2.0
6a75214fc-c3d1-a999-dbf5-1a42cf8b8d30,ZHEPUYU19105,CHN,fishing,412422253,2022-12-30 17:33:57+00:00,2023-01-01 05:28:50+00:00,35.91,2.215,140.23,117.09,0.1763,29.777,122.7763,38.0,11.99,0,0,0,0,['8486'],"['APFIC', 'WCPFC', 'IWC', 'ACAP']",not_matching_relevant_public_authorization,0,1.0,2.0,1.0,1.0,2.0
68f9f6f5c-ce6f-d6d9-2375-534e468dcd6a,ZHEPUYU21087,CHN,fishing,412421363,2022-12-30 17:43:30+00:00,2023-01-02 04:13:59+00:00,58.51,1.783,181.64,230.43,0.1263,31.3267,122.7626,45.0,1.9,0,0,0,0,['8486'],"['WCPFC', 'IWC', 'ACAP', 'PICES']",not_matching_relevant_public_authorization,0,1.0,2.0,1.0,1.0,2.0
5a8ab30ca-a107-ba48-3767-1adb7373ef2c,ZHEJIAOYU76051,CHN,fishing,412412543,2022-12-30 17:47:54+00:00,2023-01-01 20:21:22+00:00,50.56,2.862,253.4,371.47,0.154,29.522,122.813,55.0,48.12,0,0,0,0,['8486'],"['APFIC', 'WCPFC', 'ACAP', 'IWC']",not_matching_relevant_public_authorization,0,1.0,2.0,1.0,1.0,2.0
81c03e510-0aef-507d-b7b5-57ba42e354a5,ZHE JIAO YU 83018,CHN,fishing,412412443,2022-12-30 17:57:59+00:00,2023-01-01 20:38:58+00:00,50.68,2.806,239.29,335.4,0.1538,29.5035,122.8088,55.0,47.05,0,0,0,0,['8486'],"['APFIC', 'IWC', 'WCPFC', 'ACAP']",not_matching_relevant_public_authorization,0,1.0,2.0,1.0,1.0,2.0
98c1c2dba-add5-938b-78ce-866248a37445,YUECHAOYANGYU12207,CHN,fishing,412461067,2022-12-30 18:06:30+00:00,2023-01-01 03:33:07+00:00,33.44,3.011,184.44,1106.52,0.3665,21.5125,114.6348,58.0,67.26,0,0,0,0,['8486'],"['IWC', 'ACAP', 'WCPFC', 'APFIC']",not_matching_relevant_public_authorization,0,1.0,2.0,1.0,1.0,2.0
4a0a5f1e2-200f-d3b6-8e90-73874b930291,RIODOMAR QUINTO,ESP,fishing,224394000,2022-12-30 18:50:56+00:00,2023-01-01 12:14:52+00:00,41.4,3.073,221.46,112.68,0.0687,19.9789,-17.1757,57.0,90.15,0,0,0,0,['8369'],"['SRFC', 'ICCAT', 'NAMMCO', 'IWC', 'ACAP']",not_matching_relevant_public_authorization,0,1.0,2.0,1.0,1.0,2.0
01608f6c6-6914-a743-62cb-638746b5c550,DANA-4,MAR,fishing,242263400,2022-12-30 19:10:17+00:00,2023-01-01 17:55:06+00:00,46.75,3.51,296.74,1186.09,0.1654,23.4046,-16.4085,9.0,46.92,0,0,0,0,['8368'],"['ACAP', 'NAMMCO', 'ICCAT', 'IWC']",not_matching_relevant_public_authorization,0,1.0,2.0,1.0,1.0,2.0
e49b03808-8c1f-23b0-02c2-f83b61f48b37,JI LE YU 07105,CHN,fishing,412283776,2022-12-30 14:58:39+00:00,2023-01-01 04:26:20+00:00,37.46,1.221,52.38,28.14,0.2541,38.3991,118.8666,19.0,11.94,0,0,0,0,['8486'],"['WCPFC', 'IWC', 'ACAP', 'PICES']",not_matching_relevant_public_authorization,0,1.0,2.0,1.0,1.0,2.0
0000166f8-80d3-aef5-4942-60e70f962bf9,ZHEXIANGYU40043,CHN,fishing,412436673,2022-12-30 15:21:54+00:00,2023-01-01 15:20:38+00:00,47.98,2.711,226.3,4293.07,0.5744,29.597,123.367,93.0,71.09,0,0,0,0,['8486'],"['APFIC', 'WCPFC', 'IWC', 'ACAP', 'PICES']",not_matching_relevant_public_authorization,0,1.0,2.0,1.0,1.0,2.0
f0360875e-ed1c-6764-80cc-7b81cb568da1,ZHESHENGYU06407,CHN,fishing,412429934,2022-12-30 15:58:41+00:00,2023-01-02 00:41:40+00:00,56.72,2.276,231.78,495.23,0.1455,31.2667,122.9967,40.0,5.82,0,0,0,0,['8486'],"['PICES', 'ACAP', 'WCPFC', 'IWC']",not_matching_relevant_public_authorization,0,1.0,2.0,1.0,1.0,2.0
357c03afb-b9fd-d502-05f4-6fae9ac46e6d,MINXIAYU09852,CHN,fishing,412449141,2022-12-30 16:14:57+00:00,2023-01-01 14:48:16+00:00,46.56,2.768,230.87,2173.42,0.3277,35.4099,124.3799,103.0,103.86,0,0,0,0,['8327'],"['WCPFC', 'IWC', 'PICES', 'ACAP']",not_matching_relevant_public_authorization,0,1.0,2.0,1.0,1.0,2.0
827fa959f-f824-0f29-6886-bfd48a7897b4,ZHE DING YU 14230,CHN,fishing,412424639,2022-12-30 16:20:28+00:00,2023-01-02 01:55:13+00:00,57.58,2.91,298.19,2761.21,0.2872,31.414,123.144,50.0,12.96,0,0,0,0,['8486'],"['WCPFC', 'PICES', 'IWC', 'ACAP']",not_matching_relevant_public_authorization,0,1.0,2.0,1.0,1.0,2.0
614bab0b2-29d4-4264-6289-d57c7a96f58e,JILUANYU03818,CHN,fishing,412284259,2022-12-30 16:21:40+00:00,2023-01-01 10:09:28+00:00,41.8,0.95,64.28,49.94,0.1619,38.6643,118.6237,33.0,11.35,0,0,0,0,['8486'],"['WCPFC', 'ACAP', 'IWC', 'PICES']",not_matching_relevant_public_authorization,0,1.0,2.0,1.0,1.0,2.0
65640967f-f708-d327-f362-061d36451e85,ZHEXIANGYU67047,CHN,fishing,412437358,2022-12-30 16:24:08+00:00,2023-01-01 07:12:27+00:00,38.81,3.735,257.83,3661.27,0.3395,31.0506,123.151,17.0,13.79,0,0,0,0,['8486'],"['PICES', 'ACAP', 'WCPFC', 'IWC']",not_matching_relevant_public_authorization,0,1.0,2.0,1.0,1.0,2.0
ac1c2111b-b004-7b27-0273-8a3101b23857,ZHEPUYU68790,CHN,fishing,412422951,2022-12-30 16:46:34+00:00,2023-01-01 05:45:14+00:00,36.98,2.399,145.75,225.79,0.2048,30.0602,123.0751,32.0,27.0,0,0,0,0,['8486'],"['APFIC', 'IWC', 'PICES', 'WCPFC', 'ACAP']",not_matching_relevant_public_authorization,0,1.0,2.0,1.0,1.0,2.0
f44386e2b-bac6-8f25-92b6-ab931d8e4528,ZHEPUYU19155,CHN,fishing,412424138,2022-12-30 16:47:42+00:00,2023-01-02 00:39:30+00:00,55.86,2.263,223.27,123.66,0.146,29.7791,122.7783,42.0,15.39,0,0,0,0,['8486'],"['IWC', 'ACAP', 'WCPFC', 'APFIC']",not_matching_relevant_public_authorization,0,1.0,2.0,1.0,1.0,2.0
b630eba0e-eb86-714c-9d6c-bf6d9c7cba99,ZHELINGYU69169,CHN,fishing,412419748,2022-12-30 19:49:54+00:00,2023-01-01 08:39:48+00:00,36.83,2.256,131.29,669.82,0.2807,28.065,123.3932,145.0,143.4,0,0,0,0,['8486'],"['ACAP', 'IWC', 'APFIC', 'WCPFC']",not_matching_relevant_public_authorization,0,1.0,2.0,1.0,1.0,2.0
c74465e76-63f2-814c-f1d5-0f8003c3e75c,ALCANTARA SANTOS,MOZ,fishing,650117000,2022-12-30 20:22:49+00:00,2023-01-02 07:13:21+00:00,58.84,2.357,186.01,5.41,0.0177,-19.8924,34.9829,10.0,7.4,0,0,0,0,['8347'],"['IOTC', 'IWC', 'ACAP', 'SWIOFC']",not_matching_relevant_public_authorization,0,1.0,2.0,1.0,1.0,2.0
37bec27d1-1474-2dfd-7389-52de1a174d39,ZHEXIANGYU40016,CHN,fishing,412437834,2022-12-30 20:46:21+00:00,2023-01-01 07:36:28+00:00,34.84,3.03,178.87,813.54,0.2788,31.1816,123.7796,87.0,57.47,0,0,0,0,['8486'],"['PICES', 'ACAP', 'IWC', 'WCPFC']",not_matching_relevant_public_authorization,0,1.0,2.0,1.0,1.0,2.0
908dd4b5b-b08e-0a7d-ceeb-94d176e896bf,F/V NORMANDE 2,GUF,fishing,745004500,2022-12-30 21:03:18+00:00,2023-01-01 01:22:01+00:00,28.31,2.504,108.82,358.26,0.2523,5.7615,-52.0973,85.0,95.43,0,0,0,0,['8462'],"['NAMMCO', 'ICCAT', 'IWC', 'ACAP']",not_matching_relevant_public_authorization,0,1.0,2.0,1.0,1.0,2.0
18569b650-04c7-bd39-d0c5-51e0b56615f9,ZHEYINYU11635,CHN,fishing,412436246,2022-12-30 21:05:28+00:00,2023-01-01 10:41:59+00:00,37.61,2.468,89.06,156.63,0.2596,30.0756,123.0603,30.0,23.87,0,0,0,0,['8486'],"['APFIC', 'PICES', 'WCPFC', 'IWC', 'ACAP']",not_matching_relevant_public_authorization,0,1.0,2.0,1.0,1.0,2.0
a7f25c1ff-fd66-a082-b5ff-7ef293518230,MINLIANYU61759,CHN,fishing,412441229,2022-12-30 21:13:17+00:00,2023-01-01 05:33:43+00:00,32.34,2.188,119.78,504.87,0.2657,27.7488,123.5474,168.0,167.28,0,0,0,0,['8486'],"['ACAP', 'IWC', 'APFIC', 'WCPFC']",not_matching_relevant_public_authorization,0,1.0,2.0,1.0,1.0,2.0
116d1d202-212b-29f7-2918-e488a4f008a4,ZHELINGYU12110,CHN,fishing,412418032,2022-12-30 21:34:26+00:00,2023-01-01 04:45:18+00:00,31.18,2.055,109.9,1102.93,0.4713,27.66,123.3696,145.0,144.73,0,0,0,0,['8486'],"['ACAP', 'APFIC', 'IWC', 'WCPFC']",not_matching_relevant_public_authorization,0,1.0,2.0,1.0,1.0,2.0
b9f7b5e4a-aff1-36b0-0cb8-b4c73120cb7e,ZHELINGYU97031,CHN,fishing,412419369,2022-12-30 21:40:42+00:00,2023-01-01 05:26:33+00:00,31.76,2.162,109.02,352.83,0.2491,27.6595,123.5314,177.0,176.58,0,0,0,0,"['48954', '8486']","['IWC', 'APFIC', 'WCPFC', 'ACAP']",not_matching_relevant_public_authorization,0,1.0,2.0,1.0,1.0,2.0
eeb465afa-afb9-447e-1c40-d70286a91faf,LURONGYU55789,CHN,fishing,412321227,2022-12-30 22:07:06+00:00,2023-01-01 12:02:28+00:00,37.92,3.173,203.75,334.52,0.1965,34.1442,123.7612,127.0,131.85,0,0,0,0,['8327'],"['ACAP', 'WCPFC', 'IWC', 'PICES']",not_matching_relevant_public_authorization,0,1.0,2.0,1.0,1.0,2.0
4e158c654-4ac6-53c5-c1be-171bf6a032d5,OCEAN CHALLENGE BF85,GBR,fishing,235098956,2022-12-30 22:20:17+00:00,2023-01-01 15:10:59+00:00,40.84,3.49,214.03,1925.78,0.2892,57.7735,-0.4285,64.0,28.0,0,0,0,0,['5696'],"['NAMMCO', 'NASCO', 'ICES', 'ICCAT', 'ACAP', 'IWC', 'NEAFC']",not_matching_relevant_public_authorization,0,1.0,2.0,1.0,1.0,2.0
e2181cdf2-205e-2af4-d326-84a0c290849b,ZHEPUYU20001,CHN,fishing,412423805,2022-12-30 17:10:23+00:00,2023-01-01 11:41:14+00:00,42.51,2.103,146.73,223.72,0.1522,31.3175,122.7922,44.0,1.9,0,0,0,0,['8486'],"['ACAP', 'PICES', 'WCPFC', 'IWC']",not_matching_relevant_public_authorization,0,1.0,2.0,1.0,1.0,2.0
821f7b855-551a-43d4-2ea9-a24d6c9af096,ZHE JIAO YU 75048,CHN,fishing,412412502,2022-12-30 17:10:51+00:00,2023-01-01 19:46:33+00:00,50.59,2.855,259.72,1004.37,0.1936,29.6674,122.8686,48.0,27.79,0,0,0,0,['8486'],"['ACAP', 'IWC', 'WCPFC', 'APFIC']",not_matching_relevant_public_authorization,0,1.0,2.0,1.0,1.0,2.0
43ab52031-1670-ae13-80a9-840d8e72a5be,FV/DREHU,NCL,fishing,540013100,2022-12-30 17:11:22+00:00,2023-01-01 10:19:51+00:00,41.14,2.423,193.58,1180.19,0.2513,-21.1426,163.3706,135.0,133.19,1,0,1,0,['8312'],"['IWC', 'SPC', 'ACAP', 'WCPFC']",publicly_authorized,0,2.0,1.0,1.0,1.0,2.0
e9460e25c-cd39-4b76-bdbd-a3bc09ab9181,BEE BONG HO,KOR,fishing,440068520,2022-12-30 17:25:55+00:00,2023-01-01 05:17:32+00:00,35.86,2.061,114.92,30.42,0.0697,34.3189,127.8806,13.0,15.17,0,0,0,0,['8327'],"['IWC', 'PICES', 'ACAP', 'WCPFC']",not_matching_relevant_public_authorization,0,1.0,2.0,1.0,1.0,2.0
29a14b056-6d08-9388-6d86-7970dfafed26,CAPT WICK,USA,fishing,367127120,2022-12-30 17:26:01+00:00,2023-01-01 17:35:02+00:00,48.15,2.072,165.05,35.4,0.0511,27.81,-97.0087,5.0,6.81,0,0,0,0,['8456'],"['NAMMCO', 'ICCAT', 'ACAP', 'IWC']",not_matching_relevant_public_authorization,0,1.0,2.0,1.0,1.0,2.0
ffd0bd9f4-47c9-9c29-05eb-010bad137c68,JICAOYU04795,CHN,fishing,412461373,2022-12-30 17:32:41+00:00,2023-01-01 10:36:22+00:00,41.06,2.92,211.96,916.62,0.2344,29.6772,122.8621,51.0,27.08,0,0,0,0,['8486'],"['APFIC', 'ACAP', 'WCPFC', 'IWC']",not_matching_relevant_public_authorization,0,1.0,2.0,1.0,1.0,2.0
696d8bde7-73a3-b276-e485-df75542bf33b,ZHEXIANGYU31038,CHN,fishing,412436512,2022-12-29 22:55:08+00:00,2023-01-01 07:18:05+00:00,56.38,3.626,352.6,3050.39,0.2253,31.0528,123.6914,57.0,26.18,0,0,0,0,['8486'],"['ACAP', 'IWC', 'PICES', 'WCPFC']",not_matching_relevant_public_authorization,0,1.0,2.0,1.0,1.0,2.0
687d60061-16f2-e593-55f3-12564e26c524,HAI TONG 2,CHN,fishing,413022222,2022-12-29 23:42:39+00:00,2023-01-01 07:43:15+00:00,56.01,3.929,387.21,2568.34,0.2052,31.1339,123.7251,63.0,32.66,0,0,0,0,['8486'],"['WCPFC', 'PICES', 'ACAP', 'IWC']",not_matching_relevant_public_authorization,0,1.0,2.0,1.0,1.0,2.0
448689911-1971-9bac-6d90-caa95071334f,ZHEDINGYU11107,CHN,fishing,412424465,2022-12-29 02:08:38+00:00,2023-01-04 00:43:33+00:00,142.58,2.425,605.98,231.14,0.0566,29.8169,123.2317,65.0,54.27,0,0,0,0,['8486'],"['APFIC', 'IWC', 'ACAP', 'WCPFC']",not_matching_relevant_public_authorization,0,1.0,2.0,1.0,1.0,2.0
bb1228b3c-c757-5b23-98ba-c03661f32c8a,SUGANYU02502,CHN,fishing,412367323,2022-12-29 06:05:31+00:00,2023-01-02 08:51:44+00:00,98.77,1.937,351.45,28.89,0.0288,34.9292,119.9472,43.0,7.63,0,0,0,0,['8486'],"['IWC', 'WCPFC', 'ACAP', 'PICES']",not_matching_relevant_public_authorization,0,1.0,2.0,1.0,1.0,2.0
956963c5c-cd29-c308-b201-313c76b78b86,ZHEXIANGYU30302,CHN,fishing,412435969,2022-12-29 07:22:53+00:00,2023-01-01 02:33:26+00:00,67.18,3.004,332.74,904.62,0.187,29.5381,122.8143,55.0,52.46,0,0,0,0,['8486'],"['WCPFC', 'IWC', 'APFIC', 'ACAP']",not_matching_relevant_public_authorization,0,1.0,2.0,1.0,1.0,2.0
545a2ae7f-fdff-814c-bfd5-77a118ab31e2,FILAKA-7,MAR,fishing,242260400,2022-12-29 09:42:39+00:00,2023-01-01 17:48:02+00:00,80.09,3.632,526.41,834.94,0.0779,23.4074,-16.3915,36.0,56.41,0,0,0,0,['8368'],"['NAMMCO', 'ACAP', 'IWC', 'ICCAT']",not_matching_relevant_public_authorization,0,1.0,2.0,1.0,1.0,2.0
794ad992a-a190-e501-626b-8867be1bfb1b,SHUNHANG95,CHN,fishing,412356587,2022-12-29 10:32:15+00:00,2023-01-01 04:20:15+00:00,65.8,2.34,268.78,168.51,0.087,34.9448,120.1804,51.0,19.1,0,0,0,0,['8486'],"['PICES', 'ACAP', 'IWC', 'WCPFC']",not_matching_relevant_public_authorization,0,1.0,2.0,1.0,1.0,2.0
3a8b53c63-37ad-4c50-9959-e7f959192e59,ZHELINGYU96096,CHN,fishing,412419539,2022-12-29 10:42:38+00:00,2023-01-01 00:48:41+00:00,62.1,2.803,284.52,363.82,0.096,30.3001,122.898,6.0,5.88,0,0,0,0,['8486'],"['ACAP', 'IWC', 'PICES', 'WCPFC']",not_matching_relevant_public_authorization,0,1.0,2.0,1.0,1.0,2.0
d61cf003c-c3d2-e0cc-b9c1-f29051e48c24,LURONGYU59336,CHN,fishing,412331361,2022-12-29 13:19:52+00:00,2023-01-03 07:44:03+00:00,114.4,3.626,540.2,464.24,0.0655,38.006,121.4912,30.0,12.99,0,0,0,0,['8486'],"['IWC', 'PICES', 'ACAP', 'WCPFC']",not_matching_relevant_public_authorization,0,1.0,2.0,1.0,1.0,2.0
0ab2fe2df-fa19-a5eb-eb56-6605e6c2b132,ZHESHENGYU10151,CHN,fishing,412428274,2022-12-30 23:18:19+00:00,2023-01-01 05:09:35+00:00,29.85,2.756,133.05,423.69,0.228,31.4714,122.6841,62.0,2.85,0,0,0,0,['8486'],"['WCPFC', 'ACAP', 'IWC', 'PICES']",not_matching_relevant_public_authorization,0,1.0,2.0,1.0,1.0,2.0
45fc67c5f-ffbb-8088-09a3-4baf211463bb,CIUDAD DE HUELVA,ESP,fishing,225987981,2022-12-30 23:21:44+00:00,2023-01-04 06:14:49+00:00,102.88,3.205,590.95,216.02,0.0355,20.0006,-17.1989,73.0,93.96,0,0,0,0,['8369'],"['NAMMCO', 'ICCAT', 'IWC', 'SRFC', 'ACAP']",not_matching_relevant_public_authorization,0,1.0,2.0,1.0,1.0,2.0
6cca86aeb-b96b-d0ce-98c8-75fc95d24e2b,LEONORA,ZAF,fishing,601477000,2022-12-30 23:22:21+00:00,2023-01-01 16:12:01+00:00,40.83,3.177,214.77,1144.78,0.223,-35.2361,21.3766,108.0,122.55,0,0,0,0,['8396'],"['CCSBT-Primary-Area', 'IWC', 'IOTC', 'CCSBT', 'ACAP']",not_matching_relevant_public_authorization,0,1.0,2.0,1.0,1.0,2.0
6c28a41bb-bf8f-308e-d348-54be3ddec25f,SEO JIN HO,KOR,fishing,440082630,2022-12-30 23:30:08+00:00,2023-01-01 05:36:55+00:00,30.11,1.15,32.36,37.13,0.2769,34.161,128.1218,40.0,33.37,0,0,0,0,['8327'],"['ACAP', 'PICES', 'WCPFC', 'IWC']",not_matching_relevant_public_authorization,0,1.0,2.0,1.0,1.0,2.0
953801230-028a-493c-3eef-a21c988b11ed,ZHEXIANGYU25027,CHN,fishing,412435419,2022-12-30 23:30:11+00:00,2023-01-01 02:10:37+00:00,26.67,2.795,123.4,1126.11,0.4405,29.1318,122.8163,48.0,47.71,0,0,0,0,['8486'],"['WCPFC', 'ACAP', 'APFIC', 'IWC']",not_matching_relevant_public_authorization,0,1.0,2.0,1.0,1.0,2.0
c7cc2b6c2-2eea-aa5b-2cb6-21256b692800,MINFUDINGYU08786,CHN,fishing,412449959,2022-12-30 19:34:47+00:00,2023-01-01 08:01:57+00:00,36.45,2.57,162.33,647.82,0.2314,31.2039,123.7863,92.0,63.59,0,0,0,0,['8486'],"['IWC', 'WCPFC', 'ACAP', 'PICES']",not_matching_relevant_public_authorization,0,1.0,2.0,1.0,1.0,2.0
bf312570e-e765-a2f1-4afb-63784d6a5926,ZHELINGYU96002,CHN,fishing,412418434,2022-12-30 19:36:53+00:00,2023-01-01 01:02:55+00:00,29.43,3.065,149.43,270.24,0.1691,30.29,122.9087,8.0,6.76,0,0,0,0,['8486'],"['PICES', 'IWC', 'ACAP', 'WCPFC']",not_matching_relevant_public_authorization,0,1.0,2.0,1.0,1.0,2.0
740592661-14a8-33df-e521-f2e06465aab9,ZHEXIANGYU31088,CHN,fishing,412439722,2022-12-31 00:08:32+00:00,2023-01-01 07:24:36+00:00,31.27,3.725,203.48,1247.38,0.2495,31.085,123.7966,70.0,41.55,0,0,0,0,['8486'],"['WCPFC', 'PICES', 'ACAP', 'IWC']",not_matching_relevant_public_authorization,0,1.0,2.0,1.0,1.0,2.0
2f179a903-3ee2-23e4-af5c-4fe945ca344a,ZHEYUYU82028,CHN,fishing,412414781,2022-12-31 00:12:05+00:00,2023-01-01 05:26:00+00:00,29.23,2.968,139.15,382.35,0.2305,27.4579,122.9341,149.0,124.75,0,0,0,0,['8486'],"['WCPFC', 'APFIC', 'IWC', 'ACAP']",not_matching_relevant_public_authorization,0,1.0,2.0,1.0,1.0,2.0
f2eb050df-f5db-3d03-91b9-496a18d08f08,ZHEXIANGYU76128,CHN,fishing,412433179,2022-12-31 00:16:55+00:00,2023-01-01 10:10:04+00:00,33.89,2.808,155.05,990.47,0.2901,29.3095,123.2238,86.0,69.16,0,0,0,0,['8486'],"['IWC', 'APFIC', 'ACAP', 'WCPFC']",not_matching_relevant_public_authorization,0,1.0,2.0,1.0,1.0,2.0
2ba057d6d-d005-2b48-ad54-a5ba904cb1b7,ZHELINGYU96001,CHN,fishing,412418078,2022-12-31 00:29:57+00:00,2023-01-01 01:12:42+00:00,24.71,2.806,123.4,208.99,0.1698,30.3265,122.9008,12.0,11.15,0,0,0,0,['8486'],"['IWC', 'WCPFC', 'PICES', 'ACAP']",not_matching_relevant_public_authorization,0,1.0,2.0,1.0,1.0,2.0
fb1d5de4b-b698-91ec-ee93-4177c9d5c1e3,LURONGYU55761,CHN,fishing,412329213,2022-12-31 00:44:32+00:00,2023-01-01 14:43:55+00:00,37.99,2.899,181.68,607.39,0.2099,35.2537,124.186,107.0,108.19,0,0,0,0,['8327'],"['IWC', 'ACAP', 'WCPFC', 'PICES']",not_matching_relevant_public_authorization,0,1.0,2.0,1.0,1.0,2.0
ce9fa81f2-2e4a-71e5-27ef-0f0488944c52,LULANYU61802,CHN,fishing,412322866,2022-12-31 00:51:24+00:00,2023-01-01 05:17:42+00:00,28.44,1.755,92.8,151.85,0.1899,35.4469,120.0397,26.0,8.5,0,0,0,0,['8486'],"['WCPFC', 'ACAP', 'PICES', 'IWC']",not_matching_relevant_public_authorization,0,1.0,2.0,1.0,1.0,2.0
88ff0c5c4-452f-b37d-a5ef-c04dc652c0ea,ZHELINGYU12153,CHN,fishing,412416399,2022-12-31 01:03:16+00:00,2023-01-01 04:35:33+00:00,27.54,2.116,90.27,186.99,0.2887,27.6548,123.44,175.0,174.08,0,0,0,0,['8486'],"['ACAP', 'IWC', 'WCPFC', 'APFIC']",not_matching_relevant_public_authorization,0,1.0,2.0,1.0,1.0,2.0
cb5427a57-7b0c-70cd-16ae-95dededfb35e,DYNO MIKE,USA,fishing,368234380,2022-12-30 22:20:19+00:00,2023-01-01 06:07:48+00:00,31.79,2.754,158.55,850.52,0.2636,29.0513,-94.4192,43.0,14.49,0,0,0,0,['8456'],"['IWC', 'ACAP', 'NAMMCO', 'ICCAT']",not_matching_relevant_public_authorization,0,1.0,2.0,1.0,1.0,2.0
7641d0f44-4e66-7c8a-dc92-94ee3f83b65e,YUANYU 877,CHN,fishing,412549239,2022-12-30 22:27:40+00:00,2023-01-01 14:37:01+00:00,40.16,3.581,248.91,431.49,0.1855,20.486,-17.3975,55.0,53.6,0,0,0,0,"['8369', '8368']","['SRFC', 'ACAP', 'IWC', 'ICCAT', 'NAMMCO']",not_matching_relevant_public_authorization,0,1.0,2.0,1.0,1.0,2.0
d44f52942-2e16-5ec3-116b-13d239c4c2cf,ZHEYUYU82068,CHN,fishing,412415816,2022-12-30 23:00:42+00:00,2023-01-01 04:34:53+00:00,29.57,3.183,152.91,975.36,0.2906,27.4764,123.131,154.0,137.33,0,0,0,0,"['48954', '8486']","['IWC', 'WCPFC', 'APFIC', 'ACAP']",not_matching_relevant_public_authorization,0,1.0,2.0,1.0,1.0,2.0
7c2d3921a-a9ff-fad8-1fa4-314a33a41d4c,STAR SHRIMPERXXXI,NGA,fishing,657217400,2022-12-30 23:14:09+00:00,2023-01-01 00:10:09+00:00,24.93,2.478,110.61,197.56,0.2013,4.2275,6.7676,18.0,41.45,0,0,0,0,['8474'],"['IWC', 'NAMMCO', 'FCWC', 'ACAP', 'ICCAT']",not_matching_relevant_public_authorization,0,1.0,2.0,1.0,1.0,2.0
2ce6df92d-d320-5859-873d-37f32cd1916c,AREZAK-7,MAR,fishing,242257400,2022-12-29 22:17:58+00:00,2023-01-01 18:41:13+00:00,68.39,3.484,434.38,1148.76,0.1114,23.4087,-16.431,11.0,43.9,0,0,0,0,['8368'],"['NAMMCO', 'ICCAT', 'IWC', 'ACAP']",not_matching_relevant_public_authorization,0,1.0,2.0,1.0,1.0,2.0
d9f6ecff9-93b9-9225-ee8d-1dab44a31301,AREZAK-23,MAR,fishing,242264400,2022-12-29 22:22:03+00:00,2023-01-02 14:30:17+00:00,88.14,3.585,569.07,1637.87,0.1039,23.411,-16.3995,7.0,47.1,0,0,0,0,['8368'],"['ICCAT', 'IWC', 'NAMMCO', 'ACAP']",not_matching_relevant_public_authorization,0,1.0,2.0,1.0,1.0,2.0
665d93b00-0308-fdc8-e693-bd2eb997be0e,,CHN,fishing,412520115,2022-12-29 22:29:46+00:00,2023-01-01 07:21:07+00:00,56.86,3.695,368.71,2770.36,0.2019,31.0651,123.7093,57.0,26.38,0,0,0,0,['8486'],"['WCPFC', 'IWC', 'ACAP', 'PICES']",not_matching_relevant_public_authorization,0,1.0,2.0,1.0,1.0,2.0
e5285cfbd-d141-c1e5-e094-009a29ddfe44,ZHEPUYU19309,CHN,fishing,412422304,2022-12-29 22:31:44+00:00,2023-01-01 17:54:30+00:00,67.38,2.345,283.88,214.44,0.0989,29.8115,122.7633,35.0,8.97,0,0,0,0,['8486'],"['APFIC', 'WCPFC', 'IWC', 'ACAP']",not_matching_relevant_public_authorization,0,1.0,2.0,1.0,1.0,2.0
4051bae3a-a5c5-2010-4f76-5f1505993cb0,ZHEXIANGYU30057,CHN,fishing,412435155,2022-12-29 22:34:04+00:00,2023-01-01 05:49:20+00:00,55.25,3.666,347.87,3175.78,0.2343,31.0473,123.6826,57.0,25.83,0,0,0,0,['8486'],"['ACAP', 'IWC', 'WCPFC', 'PICES']",not_matching_relevant_public_authorization,0,1.0,2.0,1.0,1.0,2.0
19fe66f44-48f0-6535-f810-28bacbf586fe,ZHELINGYU15007,CHN,fishing,412419585,2022-12-31 09:15:26+00:00,2023-01-01 00:04:05+00:00,14.81,0.168,0.89,0.05,0.3383,33.7233,124.0312,105.0,107.97,0,0,0,0,['8327'],"['WCPFC', 'IWC', 'ACAP', 'PICES']",not_matching_relevant_public_authorization,0,1.0,2.0,1.0,1.0,2.0
d3afc64bb-b50e-0d84-8c4a-a910d425a1a2,ZHELINGYU26877,CHN,fishing,412418017,2022-12-31 09:16:52+00:00,2023-01-01 11:54:23+00:00,26.63,3.055,143.2,349.95,0.2608,28.5741,123.6179,124.0,122.78,0,0,0,0,['8486'],"['ACAP', 'APFIC', 'IWC', 'WCPFC']",not_matching_relevant_public_authorization,0,1.0,2.0,1.0,1.0,2.0
e003d08be-e47e-4ad0-d430-64ea30621895,SHUNFA 18,,fishing,100921322,2022-12-31 09:16:55+00:00,2023-01-01 04:43:30+00:00,19.44,1.098,31.06,49.29,0.3216,36.6863,122.1848,15.0,15.13,0,0,0,0,['8486'],"['ACAP', 'IWC', 'WCPFC', 'PICES']",not_matching_relevant_public_authorization,0,1.0,2.0,1.0,1.0,2.0
32d086efd-d56d-3add-04dc-825d0ede7305,LU LAN YU 77568,CHN,fishing,412332485,2022-12-31 09:22:26+00:00,2023-01-01 00:13:22+00:00,14.85,2.686,58.58,35.64,0.1532,35.0672,119.4035,7.0,1.11,0,0,0,0,['8486'],"['PICES', 'ACAP', 'WCPFC', 'IWC']",not_matching_relevant_public_authorization,0,1.0,2.0,1.0,1.0,2.0
069901759-9788-3844-9bdd-9d9a1172721f,SUGANYU03772,CHN,fishing,413068666,2022-12-31 09:24:02+00:00,2023-01-01 05:23:47+00:00,20.0,1.709,61.74,48.11,0.1855,34.9074,119.9734,42.0,8.55,0,0,0,0,['8486'],"['ACAP', 'PICES', 'IWC', 'WCPFC']",not_matching_relevant_public_authorization,0,1.0,2.0,1.0,1.0,2.0
46fbe5b9e-e81a-cc1d-9110-702f0ff36b3e,LURONGYU58922,CHN,fishing,412338203,2022-12-31 01:06:58+00:00,2023-01-01 14:46:49+00:00,37.66,2.983,201.22,392.23,0.1826,35.2131,124.1589,105.0,105.98,0,0,0,0,['8327'],"['ACAP', 'PICES', 'IWC', 'WCPFC']",not_matching_relevant_public_authorization,0,1.0,2.0,1.0,1.0,2.0
d425cd5bf-ffca-8731-eb2c-ac59bfa8585f,PKFB 1859SUKSANG,MYS,fishing,533344983,2022-12-31 01:08:26+00:00,2023-01-01 18:26:27+00:00,41.3,2.992,224.37,996.27,0.2148,4.2914,100.3051,45.0,39.94,0,0,0,0,['8483'],"['ACAP', 'SEAFDEC', 'IOTC', 'APFIC', 'IWC']",not_matching_relevant_public_authorization,0,1.0,2.0,1.0,1.0,2.0
053990cbf-f23d-ea70-3255-519ad40fa871,ZHEFENGYU23097,CHN,fishing,412438527,2022-12-31 01:11:55+00:00,2023-01-01 00:00:04+00:00,22.8,2.973,120.59,532.5,0.3173,35.4038,124.2828,108.0,109.41,0,0,0,0,['8327'],"['WCPFC', 'IWC', 'ACAP', 'PICES']",not_matching_relevant_public_authorization,0,1.0,2.0,1.0,1.0,2.0
996cf27d0-08c7-5a6d-eb82-96093593f746,SUNG HAE,KOR,fishing,440140210,2022-12-31 01:24:15+00:00,2023-01-01 13:43:22+00:00,36.32,2.456,125.11,13.24,0.0425,34.1152,127.5915,17.0,25.18,0,0,0,0,['8327'],"['PICES', 'WCPFC', 'ACAP', 'IWC']",not_matching_relevant_public_authorization,0,1.0,2.0,1.0,1.0,2.0
33de9ba52-25c7-4586-e914-b2d7e482f2f0,HAOYUN8,CHN,fishing,412580077,2022-12-31 01:26:37+00:00,2023-01-01 14:10:56+00:00,36.74,3.006,193.03,404.41,0.1896,35.1969,124.1337,107.0,108.04,0,0,0,0,['8327'],"['WCPFC', 'ACAP', 'IWC', 'PICES']",not_matching_relevant_public_authorization,0,1.0,2.0,1.0,1.0,2.0
06abf4ede-ea15-26d1-1b11-b09fe3eaf37d,SANTO PAI MANUEL,AGO,fishing,603100185,2022-12-31 01:32:55+00:00,2023-01-01 23:38:38+00:00,46.1,3.126,259.22,2304.57,0.2734,-10.324,13.0669,35.0,57.42,0,0,0,0,['8478'],"['IWC', 'ACAP', 'ICCAT']",not_matching_relevant_public_authorization,0,1.0,2.0,1.0,1.0,2.0
ef1a513a5-5722-3bf3-8ccd-cb4a4ea67d48,LULANYU77318,CHN,fishing,412332718,2022-12-31 06:16:31+00:00,2023-01-01 00:26:56+00:00,18.17,3.042,101.54,62.14,0.1222,35.0765,119.6207,21.0,1.11,0,0,0,0,['8486'],"['ACAP', 'WCPFC', 'PICES', 'IWC']",not_matching_relevant_public_authorization,0,1.0,2.0,1.0,1.0,2.0
8cf586208-81a5-e4b2-9bdc-a6c586b54117,ZHESHENGYU10137,CHN,fishing,412425993,2022-12-31 06:20:02+00:00,2023-01-01 02:05:46+00:00,19.76,2.534,89.2,618.7,0.43,31.4223,122.8587,58.0,13.01,0,0,0,0,['8486'],"['PICES', 'IWC', 'WCPFC', 'ACAP']",not_matching_relevant_public_authorization,0,1.0,2.0,1.0,1.0,2.0
427ac036e-eeec-d00a-92b4-3c80fc8b5b07,ZHELINGYU28879,CHN,fishing,412417865,2022-12-31 06:27:04+00:00,2023-01-01 04:52:45+00:00,22.43,2.489,94.11,371.09,0.3015,27.9942,123.3024,135.0,135.04,0,0,0,0,['8486'],"['ACAP', 'IWC', 'APFIC', 'WCPFC']",not_matching_relevant_public_authorization,0,1.0,2.0,1.0,1.0,2.0
9e5bf7b69-9097-b061-453b-28f46030a771,68166,,fishing,888868166,2022-12-31 06:29:04+00:00,2023-01-01 13:23:08+00:00,30.9,2.005,106.49,81.7,0.2042,29.9348,123.212,51.0,44.31,0,0,0,0,['8486'],"['WCPFC', 'IWC', 'ACAP', 'PICES', 'APFIC']",not_matching_relevant_public_authorization,0,1.0,2.0,1.0,1.0,2.0
9b973226b-ba32-59d6-3856-0e71906278db,LISBOA 1,BRA,fishing,710849657,2022-12-31 00:01:05+00:00,2023-01-03 17:37:58+00:00,89.61,2.365,316.15,1121.28,0.1503,-22.454,-40.4135,78.0,8.8,0,0,0,0,['8464'],"['IWC', 'ACAP', 'ICCAT']",not_matching_relevant_public_authorization,0,1.0,2.0,1.0,1.0,2.0
1263f779d-dea7-43d7-b43f-091935e20edb,1 MAN SEON,KOR,fishing,440303320,2022-12-31 07:35:12+00:00,2023-01-01 10:29:26+00:00,26.9,1.906,72.02,14.05,0.074,34.4297,127.9543,12.0,11.87,0,0,0,0,['8327'],"['WCPFC', 'IWC', 'ACAP', 'PICES']",not_matching_relevant_public_authorization,0,1.0,2.0,1.0,1.0,2.0
f1c2a00d7-7b9f-d611-7dfb-4ce1cb238281,ZHEXIANGYU12010,CHN,fishing,412436078,2022-12-31 06:38:24+00:00,2023-01-01 01:28:26+00:00,18.83,2.244,83.48,1366.61,0.72,29.8547,123.2377,63.0,44.37,0,0,0,0,['8486'],"['APFIC', 'PICES', 'WCPFC', 'IWC', 'ACAP']",not_matching_relevant_public_authorization,0,1.0,2.0,1.0,1.0,2.0
8fe2ee630-0b89-1203-64ff-28412f9a70ec,ZHELINGYU19002,AND,fishing,202006182,2022-12-31 06:41:54+00:00,2023-01-01 04:43:57+00:00,22.03,2.36,82.08,605.32,0.4712,28.0082,123.3159,132.0,132.37,0,0,0,0,['8486'],"['ACAP', 'APFIC', 'WCPFC', 'IWC']",not_matching_relevant_public_authorization,0,1.0,2.0,1.0,1.0,2.0
891ffa396-686c-c2da-f876-f6a0207109d1,ZHELINGYU26868,CHN,fishing,412419368,2022-12-31 06:46:32+00:00,2023-01-01 03:39:44+00:00,20.89,2.014,72.21,1303.99,0.738,28.058,123.3261,124.0,124.26,0,0,0,0,['8486'],"['APFIC', 'ACAP', 'IWC', 'WCPFC']",not_matching_relevant_public_authorization,0,1.0,2.0,1.0,1.0,2.0
42b4c0b9b-b802-b900-593a-5b7cdba4aa15,5DONGHAI,KOR,fishing,440126250,2022-12-31 06:48:31+00:00,2023-01-01 00:35:20+00:00,17.78,0.828,17.54,6.4,0.2201,35.2816,129.4875,16.0,15.67,0,0,0,0,['8327'],"['PICES', 'ACAP', 'WCPFC', 'IWC']",not_matching_relevant_public_authorization,0,1.0,2.0,1.0,1.0,2.0
cf5526d5e-e13d-6ea3-7f10-089594758aac,LULANYU61256,CHN,fishing,412330396,2022-12-31 06:52:01+00:00,2023-01-01 01:20:48+00:00,18.48,2.26,78.21,242.12,0.2815,35.0953,120.0379,51.0,5.9,0,0,0,0,['8486'],"['IWC', 'ACAP', 'PICES', 'WCPFC']",not_matching_relevant_public_authorization,0,1.0,2.0,1.0,1.0,2.0
a1477df25-5719-d490-420e-f733767f875c,ZHEXIANGYU24025,CHN,fishing,412436839,2022-12-31 06:56:50+00:00,2023-01-01 02:42:52+00:00,19.77,2.689,95.0,678.4,0.3986,29.5171,123.9667,129.0,119.71,0,0,0,0,['8486'],"['WCPFC', 'APFIC', 'IWC', 'ACAP']",not_matching_relevant_public_authorization,0,1.0,2.0,1.0,1.0,2.0
84ae48149-9ab3-d3ea-9b9b-77ed160d86bb,237 CHEON MAN HO,KOR,fishing,440090120,2022-12-31 06:57:41+00:00,2023-01-01 00:30:59+00:00,17.55,1.802,44.37,31.48,0.2592,36.3667,125.6503,29.0,36.65,0,0,0,0,['8327'],"['ACAP', 'PICES', 'WCPFC', 'IWC']",not_matching_relevant_public_authorization,0,1.0,2.0,1.0,1.0,2.0
99943ff4a-a246-f7cb-ed3d-84f1fc6b1c08,2012NAMSUNG,KOR,fishing,440706670,2022-12-31 07:00:45+00:00,2023-01-01 02:26:03+00:00,19.42,1.219,52.5,42.42,0.2525,33.0418,126.4973,31.0,30.04,0,0,0,0,['8327'],"['ACAP', 'WCPFC', 'PICES', 'IWC']",not_matching_relevant_public_authorization,0,1.0,2.0,1.0,1.0,2.0
243ce3191-1854-8eab-ae7d-8c9a5b2e2207,LULANYU61089,CHN,fishing,412321914,2022-12-31 07:03:23+00:00,2023-01-01 03:54:20+00:00,20.85,2.724,95.86,153.64,0.188,35.4437,120.0637,28.0,10.63,0,0,0,0,['8486'],"['WCPFC', 'ACAP', 'PICES', 'IWC']",not_matching_relevant_public_authorization,0,1.0,2.0,1.0,1.0,2.0
075579ef5-5ab6-40a7-b9cb-a41ebdc7d1e5,ZHELINGYU20406,CHN,fishing,412416788,2022-12-31 07:07:52+00:00,2023-01-01 07:57:59+00:00,24.84,2.076,83.98,300.58,0.3255,28.1899,123.4133,139.0,136.69,0,0,0,0,['8486'],"['WCPFC', 'ACAP', 'APFIC', 'IWC']",not_matching_relevant_public_authorization,0,1.0,2.0,1.0,1.0,2.0
32065b23c-c34b-5c85-9234-49ecefe8d595,LURIKAIYU63291,CHN,fishing,412325411,2022-12-31 07:09:14+00:00,2023-01-01 05:54:01+00:00,22.75,0.995,19.64,7.27,0.1975,35.0753,119.7738,36.0,1.11,0,0,0,0,['8486'],"['PICES', 'IWC', 'WCPFC', 'ACAP']",not_matching_relevant_public_authorization,0,1.0,2.0,1.0,1.0,2.0
6de7ddb82-2436-9bbc-a2d6-08697ec4d345,99HONG TUOI C14,VNM,fishing,574151065,2022-12-31 09:07:00+00:00,2023-01-01 06:27:36+00:00,21.34,1.805,64.61,333.78,0.4162,9.3113,107.15,63.0,108.98,0,0,0,0,['8484'],"['SEAFDEC', 'APFIC', 'ACAP', 'WCPFC', 'IWC']",not_matching_relevant_public_authorization,0,1.0,2.0,1.0,1.0,2.0
c6ca30d4c-cca8-92c9-b821-6620ee18940b,CARVISA DOS,SEN,fishing,663176000,2022-12-31 09:09:07+00:00,2023-01-01 01:56:20+00:00,16.79,3.326,104.51,15.31,0.1901,13.6985,-17.11,41.0,60.0,0,0,0,0,['8371'],"['SRFC', 'IWC', 'NAMMCO', 'ACAP', 'ICCAT']",not_matching_relevant_public_authorization,0,1.0,2.0,1.0,1.0,2.0
9ed83a37e-e58a-7de7-c3aa-1aa623ff4d16,ZHEXIANGYU40008,CHN,fishing,412437857,2022-12-31 09:10:34+00:00,2023-01-01 07:39:48+00:00,22.49,2.301,100.57,483.92,0.3469,31.2574,123.8213,96.0,68.6,0,0,0,0,['8486'],"['PICES', 'WCPFC', 'ACAP', 'IWC']",not_matching_relevant_public_authorization,0,1.0,2.0,1.0,1.0,2.0
481d25a61-1675-a4e5-1cbc-346243f0e44e,LIAOSUIYU01331,CHN,fishing,412001331,2022-12-31 09:15:18+00:00,2023-01-01 04:45:12+00:00,19.5,1.36,30.91,36.56,0.2778,36.6844,122.2031,15.0,15.8,0,0,0,0,['8486'],"['WCPFC', 'ACAP', 'IWC', 'PICES']",not_matching_relevant_public_authorization,0,1.0,2.0,1.0,1.0,2.0
9ed9f512c-c31c-6987-5b9c-d4bba5572c50,CHANGSHENG18,CHN,fishing,412365892,2022-12-31 07:50:18+00:00,2023-01-01 09:52:25+00:00,26.04,2.62,76.05,192.72,0.4031,34.0571,123.9277,112.0,115.72,0,0,0,0,['8327'],"['PICES', 'ACAP', 'WCPFC', 'IWC']",not_matching_relevant_public_authorization,0,1.0,2.0,1.0,1.0,2.0
bc17db645-5fa4-5509-a79a-edc47a4b36a9,YUEMAOBINYU43363,CHN,fishing,412470039,2022-12-31 07:50:26+00:00,2023-01-01 00:49:17+00:00,16.98,1.579,33.2,144.66,0.5156,21.7347,114.3928,39.0,41.34,0,0,0,0,['8486'],"['ACAP', 'IWC', 'APFIC', 'WCPFC']",not_matching_relevant_public_authorization,0,1.0,2.0,1.0,1.0,2.0
07ba1c240-0bd8-d1a8-e13a-d334489105ce,ZHEXIANGYU27091,CHN,fishing,412435766,2022-12-31 07:50:39+00:00,2023-01-02 08:47:56+00:00,48.95,2.855,241.09,5951.65,0.4522,29.4776,123.5286,104.0,86.99,0,0,0,0,['8486'],"['WCPFC', 'IWC', 'ACAP', 'APFIC']",not_matching_relevant_public_authorization,0,1.0,2.0,1.0,1.0,2.0
b16e47f05-5562-6ff1-8fb9-0a4a82cc3df9,ZHE LIN YU 12177,CHN,fishing,412413731,2022-12-31 07:55:43+00:00,2023-01-01 04:10:56+00:00,20.25,2.808,99.53,721.73,0.5415,29.588,122.8853,59.0,41.04,0,0,0,0,['8486'],"['IWC', 'WCPFC', 'ACAP', 'APFIC']",not_matching_relevant_public_authorization,0,1.0,2.0,1.0,1.0,2.0
583246da6-63bc-df64-2cad-d6a0e465fc54,ZHEHUOCHUEN88,,fishing,100000088,2022-12-31 07:09:15+00:00,2023-01-01 00:46:19+00:00,17.62,1.885,44.24,43.36,0.2457,31.2255,122.6399,33.0,0.0,0,0,0,0,['8486'],"['WCPFC', 'IWC', 'PICES', 'ACAP']",not_matching_relevant_public_authorization,0,1.0,2.0,1.0,1.0,2.0
6e1e63e05-53ef-75da-2d59-257af980cb9e,HAITONGFA678,CHN,fishing,412775365,2022-12-31 07:11:44+00:00,2023-01-01 01:43:27+00:00,18.53,2.979,95.05,754.55,0.5035,21.5209,114.6076,57.0,66.71,0,0,0,0,['8486'],"['IWC', 'WCPFC', 'ACAP', 'APFIC']",not_matching_relevant_public_authorization,0,1.0,2.0,1.0,1.0,2.0
0cf81a153-352c-06a7-ad61-1a7c050d57b6,ZHEYINYU11988,CHN,fishing,412438222,2022-12-31 07:15:09+00:00,2023-01-01 13:30:10+00:00,30.25,2.186,93.05,146.59,0.2111,30.0567,123.0281,27.0,21.9,0,0,0,0,['8486'],"['ACAP', 'PICES', 'IWC', 'APFIC', 'WCPFC']",not_matching_relevant_public_authorization,0,1.0,2.0,1.0,1.0,2.0
4a4109533-3e52-0631-6f65-253db2b1d72e,FILAKA-8,MAR,fishing,242259400,2022-12-31 07:15:44+00:00,2023-01-01 20:39:52+00:00,37.4,3.655,252.31,493.19,0.1797,23.249,-16.5655,37.0,75.36,0,0,0,0,['8368'],"['NAMMCO', 'ICCAT', 'ACAP', 'IWC']",not_matching_relevant_public_authorization,0,1.0,2.0,1.0,1.0,2.0
883841a88-8db6-8eb6-dacd-f5e483972152,F/V RIO DA BOUZA,FRA,fishing,228004700,2022-12-31 07:19:32+00:00,2023-01-04 18:03:38+00:00,106.73,3.422,585.58,14350.67,0.2879,50.2013,-9.99,179.0,181.15,0,0,0,0,['5681'],"['NASCO', 'ICCAT', 'NEAFC', 'NAMMCO', 'IWC', 'ACAP', 'ICES']",not_matching_relevant_public_authorization,0,1.0,2.0,1.0,1.0,2.0
45176d1b1-118a-9f8d-29d7-de4c622de2f3,ZHE LING YU 08082,CHN,fishing,412412437,2022-12-31 07:20:31+00:00,2023-01-01 00:56:57+00:00,17.61,2.934,92.03,91.44,0.1478,28.3971,121.8006,8.0,4.44,0,0,0,0,['8486'],"['IWC', 'APFIC', 'ACAP', 'WCPFC']",not_matching_relevant_public_authorization,0,1.0,2.0,1.0,1.0,2.0
aad845294-46dc-98ae-4dc3-34a378a59538,LOGOS,KOR,fishing,440129870,2022-12-31 07:22:21+00:00,2023-01-01 01:28:32+00:00,18.1,0.631,4.81,6.13,0.7314,34.127,128.1947,46.0,36.53,0,0,0,0,['8327'],"['PICES', 'WCPFC', 'IWC', 'ACAP']",not_matching_relevant_public_authorization,0,1.0,2.0,1.0,1.0,2.0
228bb7fd8-8d80-207e-3d25-7eb781a3845f,ISMARINE 808A,IDN,fishing,525128282,2022-12-31 07:22:42+00:00,2023-01-01 05:37:18+00:00,22.24,2.774,110.6,1670.93,0.5226,4.6401,98.5196,13.0,43.3,0,0,0,0,['8492'],"['IWC', 'IOTC', 'ACAP', 'SEAFDEC', 'APFIC']",not_matching_relevant_public_authorization,0,1.0,2.0,1.0,1.0,2.0
ecb380a18-8a79-b715-cae2-407d269fe213,ZHELINGYU23346,CHN,fishing,412417337,2022-12-31 07:24:04+00:00,2023-01-01 21:16:33+00:00,37.87,2.399,128.39,275.29,0.2072,28.2372,123.3868,132.0,129.58,0,0,0,0,['8486'],"['IWC', 'APFIC', 'WCPFC', 'ACAP']",not_matching_relevant_public_authorization,0,1.0,2.0,1.0,1.0,2.0
f41a79965-567c-16b8-76eb-7c1a8e0988a0,ZHELINGYU25895,CHN,fishing,412417721,2022-12-31 07:24:35+00:00,2023-01-01 08:56:54+00:00,25.54,1.996,85.57,410.55,0.3382,28.184,123.4142,132.0,129.24,0,0,0,0,['8486'],"['IWC', 'APFIC', 'WCPFC', 'ACAP']",not_matching_relevant_public_authorization,0,1.0,2.0,1.0,1.0,2.0
c18d3c79d-d35c-077a-4604-25149384cc7f,NO.207 KWANG YANG,KOR,fishing,440124540,2022-12-31 07:26:21+00:00,2023-01-01 01:06:41+00:00,17.67,1.389,32.15,13.46,0.1632,35.2548,129.4663,16.0,16.17,0,0,0,0,['8327'],"['IWC', 'ACAP', 'WCPFC', 'PICES']",not_matching_relevant_public_authorization,0,1.0,2.0,1.0,1.0,2.0
8a530c412-28c5-e89f-e58b-3a168cdc82d4,ZHESHENGYU06293,,fishing,900306293,2022-12-31 07:33:10+00:00,2023-01-01 00:31:15+00:00,16.97,1.732,39.95,41.26,0.2578,31.2291,122.6401,34.0,0.0,0,0,0,0,['8486'],"['PICES', 'WCPFC', 'ACAP', 'IWC']",not_matching_relevant_public_authorization,0,1.0,2.0,1.0,1.0,2.0
0a8ef57fa-a9c6-4ece-3b34-c218532a1308,630WOOJINHO,KOR,fishing,440079440,2022-12-31 08:58:04+00:00,2023-01-01 05:58:41+00:00,21.01,1.059,17.35,29.02,0.4912,33.6863,125.9426,36.0,37.88,0,0,0,0,['8327'],"['WCPFC', 'ACAP', 'IWC', 'PICES']",not_matching_relevant_public_authorization,0,1.0,2.0,1.0,1.0,2.0
bf434a1b5-5195-f66e-131a-2f3e0a99ea8b,MYS MURAVJEVA,RUS,fishing,273892200,2022-12-31 08:58:31+00:00,2023-01-01 02:48:31+00:00,17.83,3.603,124.59,265.21,0.3081,52.5647,153.8644,166.0,142.17,0,0,0,0,['5690'],"['WCPFC', 'PICES', 'IWC', 'ACAP']",not_matching_relevant_public_authorization,0,1.0,2.0,1.0,1.0,2.0
262f8e9c8-8d82-c9ce-1021-e226ca3c9131,ZHELINYU21091,CHN,fishing,412413101,2022-12-31 09:00:17+00:00,2023-01-01 02:52:10+00:00,17.86,1.093,16.71,17.36,0.3554,31.1506,122.3987,39.0,7.68,0,0,0,0,['8486'],"['IWC', 'ACAP', 'WCPFC', 'PICES']",not_matching_relevant_public_authorization,0,1.0,2.0,1.0,1.0,2.0
ec547bf87-77f4-6d93-8efb-5566a95d553b,ZHEXINGYU50195,CHN,fishing,412436048,2022-12-31 09:00:55+00:00,2023-01-01 10:18:45+00:00,25.3,3.824,173.23,2491.02,0.4142,31.1295,123.1584,26.0,14.69,0,0,0,0,['8486'],"['PICES', 'WCPFC', 'IWC', 'ACAP']",not_matching_relevant_public_authorization,0,1.0,2.0,1.0,1.0,2.0
0af4d5966-6a75-6230-aa01-30fd789f5c7d,GANYUYU12109,,fishing,926012109,2022-12-31 09:02:00+00:00,2023-01-01 08:15:52+00:00,23.23,2.296,80.42,413.69,0.3752,31.2467,123.7733,98.0,70.49,0,0,0,0,['8486'],"['PICES', 'WCPFC', 'ACAP', 'IWC']",not_matching_relevant_public_authorization,0,1.0,2.0,1.0,1.0,2.0
bf8db015a-a12b-7974-1b3d-eaf7cdeabb8a,DINLONG168,CHN,fishing,412024667,2022-12-31 09:02:08+00:00,2023-01-01 12:00:42+00:00,26.98,1.143,55.15,159.2,0.4624,30.1941,123.2619,43.0,28.43,0,0,0,0,['8486'],"['ACAP', 'WCPFC', 'PICES', 'IWC']",not_matching_relevant_public_authorization,0,1.0,2.0,1.0,1.0,2.0
b5447e87a-aa3a-0a69-5f4f-d644f9eed00c,LULANYU60097,CHN,fishing,412322526,2022-12-31 09:02:46+00:00,2023-01-01 00:53:22+00:00,15.84,2.196,63.78,221.31,0.3418,35.1124,120.1818,61.0,4.27,0,0,0,0,['8486'],"['IWC', 'ACAP', 'WCPFC', 'PICES']",not_matching_relevant_public_authorization,0,1.0,2.0,1.0,1.0,2.0
5f6d33a90-0020-a434-9183-6eae54aaa85a,AUGUSTO C,BRA,fishing,710345633,2022-12-31 09:03:09+00:00,2023-01-01 03:08:44+00:00,18.09,4.839,117.79,4520.98,0.809,-34.1784,-51.2713,175.0,230.98,0,0,0,0,['8464'],"['ICCAT', 'IWC', 'ACAP']",not_matching_relevant_public_authorization,0,1.0,2.0,1.0,1.0,2.0
bc7b6d643-3e73-b81f-904f-936f00267e49,CHOKTAWEECHAI 9,MYS,fishing,533007802,2022-12-31 09:04:01+00:00,2023-01-02 14:07:22+00:00,53.06,2.85,274.35,1154.29,0.1751,3.9464,99.9156,56.0,54.9,0,0,0,0,['8483'],"['IOTC', 'APFIC', 'ACAP', 'IWC', 'SEAFDEC']",not_matching_relevant_public_authorization,0,1.0,2.0,1.0,1.0,2.0
8de260e57-7384-6c3a-74e9-f3b2343c0967,ZHELINGYU23811,CHN,fishing,412417258,2022-12-31 07:37:02+00:00,2023-01-01 04:40:42+00:00,21.06,2.055,67.08,479.51,0.4794,28.2039,123.2297,125.0,121.99,0,0,0,0,['8486'],"['WCPFC', 'APFIC', 'ACAP', 'IWC']",not_matching_relevant_public_authorization,0,1.0,2.0,1.0,1.0,2.0
5fb532259-98b9-344d-e039-d89441d7a3e5,SUGANYU02861,,fishing,926002861,2022-12-31 07:43:21+00:00,2023-01-01 08:12:40+00:00,24.49,0.338,12.61,4.06,0.3394,34.7073,119.7976,20.0,10.05,0,0,0,0,['8486'],"['PICES', 'WCPFC', 'IWC', 'ACAP']",not_matching_relevant_public_authorization,0,1.0,2.0,1.0,1.0,2.0
d6bcd203c-c596-5776-16d8-920d1aa1554a,HAI RONG 65,,fishing,40006788,2022-12-31 07:43:25+00:00,2023-01-01 07:17:35+00:00,23.57,4.233,167.65,1816.62,0.826,31.5726,123.8257,100.0,72.83,0,0,0,0,['8486'],"['PICES', 'IWC', 'WCPFC', 'ACAP']",not_matching_relevant_public_authorization,0,1.0,2.0,1.0,1.0,2.0
4be639ef8-8f6f-46f8-59ed-5bdf42c875fe,DEOKWON HO,KOR,fishing,440121530,2022-12-31 07:43:32+00:00,2023-01-01 02:47:46+00:00,19.07,0.785,4.17,3.19,0.9348,35.2371,129.6258,29.0,24.73,0,0,0,0,['8327'],"['PICES', 'IWC', 'WCPFC', 'ACAP']",not_matching_relevant_public_authorization,0,1.0,2.0,1.0,1.0,2.0
eaefcf143-3e5e-ca27-6ff3-af75453d98d5,SHUNFA30,CHN,fishing,412423630,2022-12-31 07:46:20+00:00,2023-01-01 12:27:51+00:00,28.69,2.044,101.78,83.73,0.2703,29.9021,123.2249,57.0,50.57,0,0,0,0,['8486'],"['IWC', 'PICES', 'WCPFC', 'ACAP', 'APFIC']",not_matching_relevant_public_authorization,0,1.0,2.0,1.0,1.0,2.0
95035921b-b83f-8e16-458e-a4a5e7e4c70e,NEW YOUNG KWANG,KOR,fishing,440141660,2022-12-31 07:46:26+00:00,2023-01-01 05:09:22+00:00,21.38,0.944,6.4,1.69,0.2914,33.9513,124.5823,48.0,51.91,0,0,0,0,['8327'],"['IWC', 'PICES', 'WCPFC', 'ACAP']",not_matching_relevant_public_authorization,0,1.0,2.0,1.0,1.0,2.0
0e9e2cab0-06bd-cc47-91bd-7b5bf5111250,MINLIANYU61737,CHN,fishing,412441641,2022-12-31 07:46:50+00:00,2023-01-01 02:54:27+00:00,19.13,1.882,30.38,32.64,0.3224,26.6825,121.1912,57.0,52.58,0,0,0,0,['8486'],"['APFIC', 'ACAP', 'WCPFC', 'IWC']",not_matching_relevant_public_authorization,0,1.0,2.0,1.0,1.0,2.0
c289cf99e-ebaf-ec15-f6a0-ba52b63b5a68,605 DO HYEON,KOR,fishing,440051240,2022-12-31 08:04:37+00:00,2023-01-01 00:14:43+00:00,16.17,0.975,7.42,11.69,0.8064,34.1327,128.3799,48.0,43.78,0,0,0,0,['8327'],"['ACAP', 'PICES', 'WCPFC', 'IWC']",not_matching_relevant_public_authorization,0,1.0,2.0,1.0,1.0,2.0
e0d7d335e-e75c-6b9b-228e-40916130a604,SANG YEONG HO,KOR,fishing,440304950,2022-12-31 08:05:26+00:00,2023-01-01 03:23:29+00:00,19.3,1.717,48.89,12.49,0.1041,34.3583,127.8688,9.0,11.01,0,0,0,0,['8327'],"['PICES', 'WCPFC', 'ACAP', 'IWC']",not_matching_relevant_public_authorization,0,1.0,2.0,1.0,1.0,2.0
63775eab3-3ad1-7f51-1ae9-3c650b53fba5,BARBARA ANNE,USA,fishing,366617950,2022-12-31 08:07:13+00:00,2023-01-03 08:01:48+00:00,71.91,2.416,198.06,109.79,0.0863,40.8922,-67.0993,238.0,246.91,0,0,0,0,['8456'],"['NAMMCO', 'IWC', 'ICCAT', 'NAFO', 'NASCO', 'ACAP']",not_matching_relevant_public_authorization,0,1.0,2.0,1.0,1.0,2.0
bcdff4e8a-af6f-81f4-d3e2-967720d31e98,123,CHN,fishing,413013446,2022-12-31 08:11:23+00:00,2023-01-01 00:58:54+00:00,16.79,2.547,67.98,40.32,0.1537,34.8924,119.7558,23.0,0.0,0,0,0,0,['8486'],"['WCPFC', 'ACAP', 'PICES', 'IWC']",not_matching_relevant_public_authorization,0,1.0,2.0,1.0,1.0,2.0
39a7ad5b8-8a40-b0fe-c585-7efe28356ac8,ZHEPINGYU80126,CHN,fishing,412433461,2022-12-31 08:12:38+00:00,2023-01-01 13:17:53+00:00,29.09,3.019,133.84,1010.54,0.3426,28.5307,123.2151,92.0,90.41,0,0,0,0,['8486'],"['IWC', 'APFIC', 'WCPFC', 'ACAP']",not_matching_relevant_public_authorization,0,1.0,2.0,1.0,1.0,2.0
7d1bbdb27-74db-9323-4962-8469fd1bbe20,JI HAI YU01088,CHN,fishing,412420404,2022-12-31 08:12:55+00:00,2023-01-01 11:29:02+00:00,27.27,3.324,138.86,665.9,0.267,28.2291,123.7923,161.0,159.1,0,0,0,0,['8486'],"['IWC', 'WCPFC', 'APFIC', 'ACAP']",not_matching_relevant_public_authorization,0,1.0,2.0,1.0,1.0,2.0
fde005c3d-dbfe-2873-cc8e-cb71e3333198,567,,fishing,111111333,2022-12-31 08:14:25+00:00,2023-01-01 01:39:28+00:00,17.42,3.732,110.57,35.49,0.1561,20.3906,-17.4256,64.0,63.12,0,0,0,0,['8369'],"['NAMMCO', 'ACAP', 'ICCAT', 'IWC', 'SRFC']",not_matching_relevant_public_authorization,0,1.0,2.0,1.0,1.0,2.0
81f78e2f2-2c03-9c73-e110-91e15bb201ac,ZHEXIANGYU10010,CHN,fishing,412436084,2022-12-31 08:15:08+00:00,2023-01-01 06:37:09+00:00,22.37,2.692,105.22,1202.93,0.5867,29.8392,122.969,54.0,26.99,0,0,0,0,['8486'],"['WCPFC', 'APFIC', 'PICES', 'ACAP', 'IWC']",not_matching_relevant_public_authorization,0,1.0,2.0,1.0,1.0,2.0
14efb58c4-4cc2-3172-c66f-80adb395f840,FYY968,CHN,fishing,412440108,2022-12-31 08:15:09+00:00,2023-01-01 05:45:18+00:00,21.5,3.551,117.79,94.76,0.1614,20.4279,-17.4182,61.0,60.81,0,0,0,0,['8369'],"['ACAP', 'ICCAT', 'NAMMCO', 'SRFC', 'IWC']",not_matching_relevant_public_authorization,0,1.0,2.0,1.0,1.0,2.0
f949eb9e5-58b7-5fc7-dfe4-d293fdf41b42,LULANYU61071,CHN,fishing,412322822,2022-12-31 08:15:59+00:00,2023-01-01 01:23:28+00:00,17.12,2.211,72.73,212.9,0.2851,35.1159,120.1801,62.0,4.94,0,0,0,0,['8486'],"['ACAP', 'IWC', 'WCPFC', 'PICES']",not_matching_relevant_public_authorization,0,1.0,2.0,1.0,1.0,2.0
41f1cb847-703c-4db0-d0c9-0c3f1a258562,ZHEPINGYU80188,CHN,fishing,412433681,2022-12-31 08:17:11+00:00,2023-01-01 07:54:29+00:00,23.62,2.75,87.71,434.07,0.3461,28.5067,123.2797,107.0,105.68,0,0,0,0,['8486'],"['APFIC', 'ACAP', 'WCPFC', 'IWC']",not_matching_relevant_public_authorization,0,1.0,2.0,1.0,1.0,2.0
8065f2c74-4171-eb94-3dc7-9b22d21542be,ZHEXIANGYU27009,CHN,fishing,412437234,2022-12-31 08:17:56+00:00,2023-01-01 10:46:02+00:00,26.47,2.792,130.25,4405.88,0.7221,29.6055,123.5909,107.0,80.57,0,0,0,0,['8486'],"['ACAP', 'APFIC', 'IWC', 'WCPFC']",not_matching_relevant_public_authorization,0,1.0,2.0,1.0,1.0,2.0
a17f759c5-5d5e-6bcc-ab2a-e92e1ae4cdbb,SUGANYU02098,CHN,fishing,412302098,2022-12-31 08:56:39+00:00,2023-01-01 07:06:19+00:00,22.16,1.684,62.93,223.19,0.4135,31.2578,123.6245,86.0,60.23,0,0,0,0,['8486'],"['IWC', 'PICES', 'WCPFC', 'ACAP']",not_matching_relevant_public_authorization,0,1.0,2.0,1.0,1.0,2.0
d49fdebb2-2ed4-9a41-934e-43c3220f6d2c,PKFB1110,MYS,fishing,533341110,2022-12-31 08:57:17+00:00,2023-01-03 03:24:01+00:00,66.45,3.021,352.59,918.28,0.1269,4.0131,99.9126,66.0,64.9,0,0,0,0,['8483'],"['IOTC', 'ACAP', 'IWC', 'APFIC', 'SEAFDEC']",not_matching_relevant_public_authorization,0,1.0,2.0,1.0,1.0,2.0
754a35865-50df-e942-98b7-faefa275de97,LULANYU77595,CHN,fishing,412332614,2022-12-31 08:57:37+00:00,2023-01-01 00:38:33+00:00,15.68,3.049,68.5,45.0,0.1385,35.0788,119.6039,22.0,1.11,0,0,0,0,['8486'],"['IWC', 'ACAP', 'PICES', 'WCPFC']",not_matching_relevant_public_authorization,0,1.0,2.0,1.0,1.0,2.0
0025a72a3-399d-f1cd-20db-8f772600f8fa,YUEMAOBINYU43299,CHN,fishing,412470624,2022-12-31 08:57:55+00:00,2023-01-01 00:13:04+00:00,15.25,1.282,24.19,139.97,0.6998,21.7887,114.2342,25.0,32.52,0,0,0,0,['8486'],"['IWC', 'APFIC', 'WCPFC', 'ACAP']",not_matching_relevant_public_authorization,0,1.0,2.0,1.0,1.0,2.0
026995043-38ee-18fa-8433-9b1be40ccc05,ANNE RISLEY,CAN,fishing,316014440,2022-12-25 11:51:26+00:00,2023-01-01 00:49:03+00:00,156.96,2.702,478.98,18.1,0.0129,44.7083,-57.5021,190.0,234.76,0,0,0,0,['8493'],"['NASCO', 'ICCAT', 'ACAP', 'IWC', 'NAFO', 'NAMMCO']",not_matching_relevant_public_authorization,0,1.0,2.0,1.0,1.0,2.0
5dbfabdfa-a75a-f58e-0882-836422ffe16e,ZHEPUYU21418,CHN,fishing,412420686,2022-12-25 18:56:45+00:00,2023-01-02 00:14:43+00:00,173.3,2.325,669.38,546.45,0.0621,29.897,123.2281,55.0,49.27,0,0,0,0,['8486'],"['ACAP', 'WCPFC', 'APFIC', 'PICES', 'IWC']",not_matching_relevant_public_authorization,0,1.0,2.0,1.0,1.0,2.0
ec9538b38-830a-9923-c628-1b70537d6a7d,JOCKA,USA,fishing,367551860,2022-12-27 01:27:52+00:00,2023-01-01 18:05:46+00:00,136.63,2.667,648.31,3579.46,0.1537,42.8892,-69.8289,41.0,44.51,0,0,0,0,['8456'],"['NAFO', 'ACAP', 'ICCAT', 'NASCO', 'NAMMCO', 'IWC']",not_matching_relevant_public_authorization,0,1.0,2.0,1.0,1.0,2.0
ca0788e5d-d922-4743-43ac-cf6cc561dc22,THE BLACK PEARL,,fishing,984053990,2022-12-27 04:46:28+00:00,2023-01-05 12:13:05+00:00,223.44,2.399,655.58,143.68,0.0288,21.4491,90.1317,49.0,76.6,0,0,0,0,['8481'],"['APFIC', 'ACAP', 'IWC', 'IOTC', 'BOBP-IGO']",not_matching_relevant_public_authorization,0,1.0,2.0,1.0,1.0,2.0
5e7de6912-2e4c-d0f6-2145-9b4f7e151751,65618,,fishing,100704495,2022-12-27 11:25:13+00:00,2023-01-02 18:13:55+00:00,150.81,3.232,839.65,2865.35,0.1002,21.9019,113.7649,12.0,13.85,0,0,0,0,['8486'],"['APFIC', 'IWC', 'ACAP', 'WCPFC']",not_matching_relevant_public_authorization,0,1.0,2.0,1.0,1.0,2.0
bbc3c8098-8b84-152c-657f-df3876446564,YUEYANGJIANG41065,CHN,fishing,412470191,2022-12-27 11:57:13+00:00,2023-01-01 00:53:20+00:00,108.94,3.57,679.86,1664.52,0.0917,21.3752,111.9476,29.0,24.51,0,0,0,0,['8486'],"['ACAP', 'APFIC', 'IWC', 'WCPFC']",not_matching_relevant_public_authorization,0,1.0,2.0,1.0,1.0,2.0
ceac5e3f8-831c-3485-25a4-c4729e7ccec9,SEAFARER,USA,fishing,368254710,2022-12-27 14:41:53+00:00,2023-01-01 04:21:57+00:00,109.67,4.107,643.89,293.29,0.0399,41.1295,-69.3314,55.0,64.59,0,0,0,0,['8456'],"['ICCAT', 'NAMMCO', 'NASCO', 'IWC', 'NAFO', 'ACAP']",not_matching_relevant_public_authorization,0,1.0,2.0,1.0,1.0,2.0
06fb60e83-391b-1997-6a63-5efc9428b0f6,,,fishing,200028526,2022-12-27 20:41:21+00:00,2023-01-01 10:34:35+00:00,109.89,3.415,672.46,1499.76,0.0872,21.3816,111.9798,36.0,31.47,0,0,0,0,['8486'],"['APFIC', 'ACAP', 'IWC', 'WCPFC']",not_matching_relevant_public_authorization,0,1.0,2.0,1.0,1.0,2.0
00e3bfcdd-de86-c933-dbd1-a6c354a40f2c,ST. FRANCIS,USA,fishing,368027410,2022-12-31 09:57:51+00:00,2023-01-01 18:08:18+00:00,32.17,2.672,145.77,548.97,0.2398,28.2037,-96.1111,30.0,25.59,0,0,0,0,['8456'],"['ICCAT', 'ACAP', 'IWC', 'NAMMCO']",not_matching_relevant_public_authorization,0,1.0,2.0,1.0,1.0,2.0
29affba9f-fc0c-b867-1896-78ac8f84a73b,STAR SHRIMPER-13,NGA,fishing,657215600,2022-12-31 09:58:05+00:00,2023-01-01 13:49:08+00:00,27.85,2.395,120.85,286.19,0.2122,5.1452,5.2498,21.0,18.63,0,0,0,0,['8474'],"['NAMMCO', 'ACAP', 'FCWC', 'ICCAT', 'IWC']",not_matching_relevant_public_authorization,0,1.0,2.0,1.0,1.0,2.0
ce0396a0c-cceb-0d84-cf44-2914cc7de397,GUIHEYU33198,CHN,fishing,412502753,2022-12-31 10:00:23+00:00,2023-01-01 00:07:18+00:00,14.12,2.694,67.96,37.68,0.1321,21.4273,108.6119,22.0,1.04,0,0,0,0,['8486'],"['IWC', 'WCPFC', 'APFIC', 'ACAP']",not_matching_relevant_public_authorization,0,1.0,2.0,1.0,1.0,2.0
086dbea53-337b-14d3-f7cc-8a8d20af0f07,MYS LOVTSOVA,RUS,fishing,273895000,2022-12-31 08:28:16+00:00,2023-01-01 14:55:45+00:00,30.46,3.494,194.87,662.37,0.2457,52.6544,153.8999,164.0,141.41,0,0,0,0,['5690'],"['IWC', 'PICES', 'ACAP', 'WCPFC']",not_matching_relevant_public_authorization,0,1.0,2.0,1.0,1.0,2.0
40be06cce-ee7c-6699-4f07-96168c929265,2013 HYUN JIN HO,KOR,fishing,440154740,2022-12-31 08:28:34+00:00,2023-01-01 07:40:34+00:00,23.2,0.978,30.72,33.17,0.4453,34.3107,128.7426,41.0,33.37,0,0,0,0,['8327'],"['IWC', 'ACAP', 'WCPFC', 'PICES']",not_matching_relevant_public_authorization,0,1.0,2.0,1.0,1.0,2.0
f58109169-9128-f6a0-4a92-576f8c566b2c,ZHE XIANG YU 27009,CYP,fishing,212427009,2022-12-31 08:29:34+00:00,2023-01-01 15:05:47+00:00,30.6,2.83,149.59,4442.83,0.6295,29.5954,123.5859,108.0,82.6,0,0,0,0,['8486'],"['APFIC', 'WCPFC', 'IWC', 'ACAP']",not_matching_relevant_public_authorization,0,1.0,2.0,1.0,1.0,2.0
2391a052e-ed1f-49b7-5f21-569e2c0bc6dd,ZHE PING YU 80110,CHN,fishing,412433607,2022-12-31 07:59:12+00:00,2023-01-01 13:15:50+00:00,29.28,3.538,148.73,582.74,0.2315,28.6059,123.2837,96.0,94.31,0,0,0,0,['8486'],"['APFIC', 'ACAP', 'WCPFC', 'IWC']",not_matching_relevant_public_authorization,0,1.0,2.0,1.0,1.0,2.0
77891079c-c00e-1065-a749-49c28b62710c,MIN SUNG HO,KOR,fishing,440088510,2022-12-31 08:02:20+00:00,2023-01-01 04:07:09+00:00,20.08,0.828,14.57,13.45,0.4008,34.2294,128.113,38.0,29.04,0,0,0,0,['8327'],"['WCPFC', 'ACAP', 'IWC', 'PICES']",not_matching_relevant_public_authorization,0,1.0,2.0,1.0,1.0,2.0
1ecdf1b28-80b1-738d-daee-9badb2fbc797,2021 DONG WON,KOR,fishing,440148360,2022-12-31 08:36:34+00:00,2023-01-01 07:42:18+00:00,23.1,1.032,28.78,76.77,0.5034,34.2088,128.6702,47.0,44.94,0,0,0,0,['8327'],"['ACAP', 'WCPFC', 'IWC', 'PICES']",not_matching_relevant_public_authorization,0,1.0,2.0,1.0,1.0,2.0
722c5a77d-d6a3-da34-9c8f-1c298c79a31a,LUJIAOYU60532,CHN,fishing,412349788,2022-12-31 08:36:43+00:00,2023-01-01 00:12:16+00:00,15.59,1.185,10.12,3.26,0.3182,35.4913,120.6552,50.0,37.28,0,0,0,0,['8486'],"['PICES', 'IWC', 'WCPFC', 'ACAP']",not_matching_relevant_public_authorization,0,1.0,2.0,1.0,1.0,2.0
d62fdd117-7197-2d3c-31af-b7a6b79764e0,RISHENG 606,,fishing,900028977,2022-12-31 08:38:19+00:00,2023-01-01 00:03:41+00:00,15.42,3.496,89.26,72.81,0.1874,20.4327,-17.4112,61.0,60.81,0,0,0,0,['8369'],"['IWC', 'NAMMCO', 'SRFC', 'ICCAT', 'ACAP']",not_matching_relevant_public_authorization,0,1.0,2.0,1.0,1.0,2.0
18469f766-6201-2aab-b756-fc064c6cb02f,CHANGHONG 6,CHN,fishing,413880223,2022-12-31 08:39:02+00:00,2023-01-01 00:53:09+00:00,16.24,2.752,77.35,49.85,0.1295,35.078,119.6108,22.0,1.11,0,0,0,0,['8486'],"['IWC', 'WCPFC', 'PICES', 'ACAP']",not_matching_relevant_public_authorization,0,1.0,2.0,1.0,1.0,2.0
c834d7a25-5919-4524-262e-ef1c09f67be0,LULANYU61861,CHN,fishing,412328582,2022-12-31 08:18:47+00:00,2023-01-01 00:30:39+00:00,16.2,2.091,66.89,301.97,0.3932,35.1757,120.0882,55.0,3.81,0,0,0,0,['8486'],"['ACAP', 'PICES', 'IWC', 'WCPFC']",not_matching_relevant_public_authorization,0,1.0,2.0,1.0,1.0,2.0
e1c470f97-7873-591c-226d-c0e2881b87fd,ZHELINGYU28999,CHN,fishing,412417494,2022-12-31 08:19:24+00:00,2023-01-01 10:00:46+00:00,25.69,2.687,108.76,1293.64,0.5957,28.0985,123.6354,149.0,146.94,0,0,0,0,['8486'],"['IWC', 'ACAP', 'APFIC', 'WCPFC']",not_matching_relevant_public_authorization,0,1.0,2.0,1.0,1.0,2.0
1e1097ea6-61d3-97ec-381f-05ef532725e9,DAEHYEON2HO,KOR,fishing,440321160,2022-12-31 08:19:34+00:00,2023-01-01 05:04:52+00:00,20.75,2.325,63.01,16.82,0.092,34.1107,127.5714,16.0,23.98,0,0,0,0,['8327'],"['ACAP', 'WCPFC', 'PICES', 'IWC']",not_matching_relevant_public_authorization,0,1.0,2.0,1.0,1.0,2.0
e75c56be2-2a86-fc30-bada-5dc23b2e255d,FU YUAN YU810,CHN,fishing,412440333,2022-12-31 08:19:41+00:00,2023-01-01 05:48:25+00:00,21.48,3.553,124.59,86.29,0.1257,20.442,-17.4259,59.0,58.54,0,0,0,0,['8369'],"['IWC', 'ICCAT', 'NAMMCO', 'SRFC', 'ACAP']",not_matching_relevant_public_authorization,0,1.0,2.0,1.0,1.0,2.0
bd65496f5-5a88-f31b-2546-7013ae3e2b2d,CAO NOI48  F32,VNM,fishing,574710097,2022-12-31 08:23:37+00:00,2023-01-01 06:21:55+00:00,21.97,1.798,60.51,224.74,0.4601,9.2013,107.1676,58.0,120.09,0,0,0,0,['8484'],"['APFIC', 'SEAFDEC', 'WCPFC', 'IWC', 'ACAP']",not_matching_relevant_public_authorization,0,1.0,2.0,1.0,1.0,2.0
02d59e029-9f6e-bb5a-7f12-dd474fec4103,IONA,CMR,fishing,613003744,2022-12-31 08:24:19+00:00,2023-01-01 05:04:03+00:00,20.66,0.441,17.39,0.27,0.0422,59.852,25.8571,18.0,25.99,0,0,0,0,['5675'],"['ICES', 'ACAP', 'NASCO', 'IWC', 'ICCAT', 'NAMMCO']",not_matching_relevant_public_authorization,0,1.0,2.0,1.0,1.0,2.0
045239ac1-1cdd-a1d6-19cf-307c21d6357f,JI HAI YU 01087,CHN,fishing,412420403,2022-12-31 08:24:24+00:00,2023-01-01 08:41:19+00:00,24.28,3.196,117.36,491.03,0.277,28.2403,123.7477,159.0,157.17,0,0,0,0,['8486'],"['IWC', 'WCPFC', 'APFIC', 'ACAP']",not_matching_relevant_public_authorization,0,1.0,2.0,1.0,1.0,2.0
ec647cdf0-0a54-f8b8-24de-eac0ea8ea0e5,ZHEXIANGYU42033,CHN,fishing,412435307,2022-12-31 08:25:50+00:00,2023-01-01 07:16:06+00:00,22.84,3.574,148.86,1615.28,0.3834,31.1481,123.8381,74.0,45.96,0,0,0,0,['8486'],"['WCPFC', 'IWC', 'ACAP', 'PICES']",not_matching_relevant_public_authorization,0,1.0,2.0,1.0,1.0,2.0
7eb22cce0-0db2-4380-5d1a-5bf89029d862,ZHEDINGYU12133,CHN,fishing,412424508,2022-12-29 13:59:17+00:00,2023-01-02 05:05:29+00:00,87.1,2.202,325.15,163.8,0.0868,29.8069,123.2333,65.0,54.27,0,0,0,0,['8486'],"['IWC', 'APFIC', 'WCPFC', 'ACAP']",not_matching_relevant_public_authorization,0,1.0,2.0,1.0,1.0,2.0
bf211b1eb-b5b6-1dde-89e5-18cbfa6c4e7c,GUL-E-SARWAR-1,PAK,fishing,463885626,2022-12-29 16:45:28+00:00,2023-01-03 13:42:38+00:00,116.95,1.98,401.01,1623.32,0.1482,24.5715,66.8829,53.0,32.2,0,0,0,0,['8359'],"['IOTC', 'ACAP', 'IWC']",not_matching_relevant_public_authorization,0,1.0,2.0,1.0,1.0,2.0
1ab5d2244-47f8-18b2-4db1-2a9a69f6fb02,RA PA YEL HO,KOR,fishing,440304710,2022-12-31 09:50:36+00:00,2023-01-01 02:13:39+00:00,16.38,2.317,51.28,25.56,0.3014,36.5262,125.345,26.0,70.68,0,0,0,0,['8327'],"['ACAP', 'IWC', 'WCPFC', 'PICES']",not_matching_relevant_public_authorization,0,1.0,2.0,1.0,1.0,2.0
67b7f07a0-02e6-f717-a2e9-61faad186514,SU GAN YU 09456,CHN,fishing,412364474,2022-12-25 04:44:52+00:00,2023-01-01 04:49:48+00:00,168.08,2.13,609.58,258.78,0.0411,34.9465,120.1413,49.0,16.57,0,0,0,0,['8486'],"['ACAP', 'IWC', 'PICES', 'WCPFC']",not_matching_relevant_public_authorization,0,1.0,2.0,1.0,1.0,2.0
812e32e8c-c6b1-2da4-fdd6-883635439693,NO.301 MANSEON,KOR,fishing,440320210,2022-12-31 09:51:22+00:00,2023-01-01 04:58:38+00:00,19.12,2.106,50.69,120.96,0.3303,33.3825,125.8047,36.0,43.42,0,0,0,0,['8327'],"['WCPFC', 'PICES', 'IWC', 'ACAP']",not_matching_relevant_public_authorization,0,1.0,2.0,1.0,1.0,2.0
ce1fdd83d-dbfd-979e-e209-a5f3673054c0,LIAO PU YU 15062,CHN,fishing,412376651,2022-12-31 10:06:02+00:00,2023-01-03 06:57:56+00:00,68.86,2.241,235.0,64.0,0.0485,38.6501,121.7288,26.0,25.59,0,0,0,0,['8486'],"['PICES', 'IWC', 'ACAP', 'WCPFC']",not_matching_relevant_public_authorization,0,1.0,2.0,1.0,1.0,2.0
623d7ee20-06fd-1bda-19a2-c6866ae45179,JINTANGYU03165,CHN,fishing,412300437,2022-12-31 10:08:45+00:00,2023-01-01 01:31:25+00:00,15.38,0.956,13.48,5.53,0.47,38.9345,117.9229,13.0,0.87,0,0,0,0,['8486'],"['IWC', 'WCPFC', 'PICES', 'ACAP']",not_matching_relevant_public_authorization,0,1.0,2.0,1.0,1.0,2.0
5a5d88fd5-5de4-ddaf-2e17-f6fe81812101,LUOI XU 66F38,VNM,fishing,574099966,2022-12-31 10:09:23+00:00,2023-01-01 02:28:30+00:00,16.32,1.154,14.1,13.73,0.9483,9.1291,107.3759,80.0,134.46,0,0,0,0,['8484'],"['WCPFC', 'SEAFDEC', 'ACAP', 'IWC', 'APFIC']",not_matching_relevant_public_authorization,0,1.0,2.0,1.0,1.0,2.0
76fef57fb-bab1-3b9b-9065-680d1e18b370,ZHELINYU21835,CHN,fishing,412414122,2022-12-31 10:10:16+00:00,2023-01-01 02:50:13+00:00,16.67,0.661,17.15,18.66,0.3908,30.6047,122.4595,7.0,6.16,0,0,0,0,['8486'],"['ACAP', 'IWC', 'PICES', 'WCPFC']",not_matching_relevant_public_authorization,0,1.0,2.0,1.0,1.0,2.0
a0af0e2b8-8409-d3e6-438b-716152b473a4,108 SIN GWANG,KOR,fishing,440329010,2022-12-31 10:10:32+00:00,2023-01-01 00:01:40+00:00,13.85,1.344,34.52,44.64,0.3624,34.3411,127.9314,21.0,22.42,0,0,0,0,['8327'],"['IWC', 'WCPFC', 'PICES', 'ACAP']",not_matching_relevant_public_authorization,0,1.0,2.0,1.0,1.0,2.0
cfdf78429-9835-b42d-30a4-11aa2184639c,FV ANDROMEDA,ZAF,fishing,601762000,2022-12-31 10:10:41+00:00,2023-01-01 05:24:04+00:00,19.22,2.286,84.4,581.52,0.5804,-35.761,21.2115,158.0,162.13,0,0,0,0,['8396'],"['IWC', 'CCSBT-Primary-Area', 'CCSBT', 'ACAP', 'IOTC']",not_matching_relevant_public_authorization,0,1.0,2.0,1.0,1.0,2.0
c1c9dcc0c-cb92-3254-67cb-050b73625ab2,LULANYU77633,CHN,fishing,412327089,2022-12-31 08:41:46+00:00,2023-01-01 00:56:56+00:00,16.25,2.701,73.32,12.05,0.0762,35.035,119.4442,10.0,0.0,0,0,0,0,['8486'],"['WCPFC', 'ACAP', 'PICES', 'IWC']",not_matching_relevant_public_authorization,0,1.0,2.0,1.0,1.0,2.0
fbe038228-8cb9-4183-e3fc-b841226d994d,ZHELINGYU95068,CHN,fishing,412417858,2022-12-31 08:43:51+00:00,2023-01-01 07:12:38+00:00,22.48,2.512,98.6,622.26,0.368,28.2396,123.6423,145.0,143.66,0,0,0,0,['8486'],"['ACAP', 'IWC', 'APFIC', 'WCPFC']",not_matching_relevant_public_authorization,0,1.0,2.0,1.0,1.0,2.0
2b8cd9af2-2e3a-32a5-8515-9adfbd0793cb,FU YUAN YU 811,CHN,fishing,412440334,2022-12-31 08:46:01+00:00,2023-01-01 00:36:02+00:00,15.83,3.372,87.93,134.18,0.1894,20.4447,-17.4164,59.0,58.6,0,0,0,0,['8369'],"['IWC', 'NAMMCO', 'SRFC', 'ICCAT', 'ACAP']",not_matching_relevant_public_authorization,0,1.0,2.0,1.0,1.0,2.0
bbae180a9-9dea-e752-98cb-bb4b263506a3,LUNG CHIN OYES 1975,MYS,fishing,533991975,2022-12-31 08:46:29+00:00,2023-01-03 03:08:29+00:00,66.37,2.886,346.47,773.96,0.1162,3.9211,99.9512,63.0,62.1,0,0,0,0,['8483'],"['ACAP', 'APFIC', 'SEAFDEC', 'IOTC', 'IWC']",not_matching_relevant_public_authorization,0,1.0,2.0,1.0,1.0,2.0
97a565305-5a4c-5513-1887-37de4085fb6d,ZHEPINGYU80186,CHN,fishing,412433678,2022-12-31 08:47:21+00:00,2023-01-01 10:03:50+00:00,25.27,2.913,102.82,357.3,0.2853,28.545,123.2979,108.0,106.76,0,0,0,0,['8486'],"['APFIC', 'IWC', 'WCPFC', 'ACAP']",not_matching_relevant_public_authorization,0,1.0,2.0,1.0,1.0,2.0
e08c61bc5-52a7-170e-4ad4-c55ddcad424c,ZHELINGYU93033,CHN,fishing,412418499,2022-12-31 08:47:31+00:00,2023-01-01 07:16:16+00:00,22.48,2.114,74.3,224.72,0.3131,28.3995,123.1901,109.0,107.25,0,0,0,0,['8486'],"['WCPFC', 'APFIC', 'ACAP', 'IWC']",not_matching_relevant_public_authorization,0,1.0,2.0,1.0,1.0,2.0
91b7e8b24-49be-c5e9-e8e1-16dfdc9898c8,LURIKAIYU63638,CHN,fishing,412328121,2022-12-31 08:49:09+00:00,2023-01-01 01:07:13+00:00,16.3,0.872,23.87,7.45,0.1687,35.0863,119.9186,48.0,5.85,0,0,0,0,['8486'],"['PICES', 'IWC', 'WCPFC', 'ACAP']",not_matching_relevant_public_authorization,0,1.0,2.0,1.0,1.0,2.0
2aa15375e-e4ff-f9ba-3327-1d9bbca736f4,SELMA-5,MAR,fishing,242283400,2022-12-28 22:17:52+00:00,2023-01-01 07:08:06+00:00,80.84,3.419,507.0,276.79,0.0474,23.4785,-16.4181,39.0,48.52,0,0,0,0,['8368'],"['IWC', 'ACAP', 'NAMMCO', 'ICCAT']",not_matching_relevant_public_authorization,0,1.0,2.0,1.0,1.0,2.0
dddc35ac1-1081-7fcb-829c-5a8ad63bc9fe,SAFINA_MOHD_AWAIS,,fishing,46224047,2022-12-31 09:51:01+00:00,2023-01-01 01:41:16+00:00,15.84,2.102,58.15,983.77,0.9515,24.4418,66.9367,43.0,35.86,0,0,0,0,['8359'],"['IOTC', 'ACAP', 'IWC']",not_matching_relevant_public_authorization,0,1.0,2.0,1.0,1.0,2.0
f258ff6d2-2737-816b-7d78-b34cc4463654,"LUOI%XUAN""PHUC B""6=:",,fishing,942672549,2022-12-31 08:50:05+00:00,2023-01-01 05:23:28+00:00,20.56,2.423,62.22,54.94,0.1761,9.331,107.3541,90.0,106.19,0,0,0,0,['8484'],"['ACAP', 'APFIC', 'IWC', 'SEAFDEC', 'WCPFC']",not_matching_relevant_public_authorization,0,1.0,2.0,1.0,1.0,2.0
b70f1ae67-7358-141c-5122-85f8ac5c756e,LUDONGGANGYU61166,CHN,fishing,412330409,2022-12-31 09:46:56+00:00,2023-01-01 18:31:53+00:00,32.75,2.265,113.8,226.07,0.1933,35.1252,120.1929,61.0,4.27,0,0,0,0,['8486'],"['IWC', 'ACAP', 'WCPFC', 'PICES']",not_matching_relevant_public_authorization,0,1.0,2.0,1.0,1.0,2.0
1dade6629-9e4b-eefc-7754-a62a776804fa,IMULA 0398TLE,LKA,fishing,417039847,2022-12-31 09:46:53+00:00,2023-01-01 01:23:40+00:00,15.61,1.235,30.2,97.02,0.7381,5.8811,80.4581,11.0,14.19,0,0,0,0,['8346'],"['IOTC', 'BOBP-IGO', 'APFIC', 'ACAP', 'IWC']",not_matching_relevant_public_authorization,0,1.0,2.0,1.0,1.0,2.0
b466a74ee-ee81-ef7b-33eb-7004708df794,SUGANYU03466,,fishing,926003466,2022-12-29 17:46:01+00:00,2023-01-01 12:35:53+00:00,66.83,2.072,241.92,298.9,0.1355,34.8316,120.1129,40.0,17.86,0,0,0,0,['8486'],"['WCPFC', 'PICES', 'IWC', 'ACAP']",not_matching_relevant_public_authorization,0,1.0,2.0,1.0,1.0,2.0
68b3cfb37-7e24-298e-648d-5945477b7064,ZHELINGYU96081,CHN,fishing,412417445,2022-12-29 18:55:41+00:00,2023-01-01 03:12:56+00:00,56.29,2.673,256.68,271.72,0.0935,30.3364,122.8977,13.0,13.32,0,0,0,0,['8486'],"['ACAP', 'IWC', 'WCPFC', 'PICES']",not_matching_relevant_public_authorization,0,1.0,2.0,1.0,1.0,2.0
e568efde2-206d-6c93-a4e9-dbfc0bd50d44,JIFENGYU01159,CHN,fishing,412284431,2022-12-28 00:50:10+00:00,2023-01-01 00:09:42+00:00,95.33,2.212,242.56,41.71,0.0386,39.0698,118.0421,16.0,4.45,0,0,0,0,['8486'],"['ACAP', 'WCPFC', 'IWC', 'PICES']",not_matching_relevant_public_authorization,0,1.0,2.0,1.0,1.0,2.0
